<?xml version="1.0" encoding="UTF-8" standalone="yes"?><response><header><resultCode>00</resultCode><resultMsg>NORMAL SERVICE.</resultMsg></header><body><items><item><addr>경기도 과천시 막계동 159-1 서울대공원 소형차 주차장</addr><chargeTp>2</chargeTp><cpId>11811</cpId><cpNm>급속02</cpNm><cpStat>1</cpStat><cpTp>7</cpTp><csId>5172</csId><csNm>서울대공원</csNm><lat>37.433977141887304</lat><longi>127.00599130600706</longi><statUpdateDatetime>2023-06-15 16:06:33</statUpdateDatetime></item><item><addr>경기도 과천시 막계동 159-1 서울대공원 소형차 주차장</addr><chargeTp>2</chargeTp><cpId>11814</cpId><cpNm>급속05</cpNm><cpStat>1</cpStat><cpTp>7</cpTp><csId>5172</csId><csNm>서울대공원</csNm><lat>37.433977141887304</lat><longi>127.00599130600706</longi><statUpdateDatetime>2023-06-15 16:06:40</statUpdateDatetime></item><item><addr>경기도 과천시 막계동 159-1 서울대공원 소형차 주차장</addr><chargeTp>2</chargeTp><cpId>11816</cpId><cpNm>급속07</cpNm><cpStat>1</cpStat><cpTp>7</cpTp><csId>5172</csId><csNm>서울대공원</csNm><lat>37.433977141887304</lat><longi>127.00599130600706</longi><statUpdateDatetime>2023-06-15 16:06:28</statUpdateDatetime></item><item><addr>전라남도 순천시 연향동 813-7 순천만가든마켓 주차장 입구 중앙</addr><chargeTp>2</chargeTp><cpId>11836</cpId><cpNm>급속02</cpNm><cpStat>1</cpStat><cpTp>7</cpTp><csId>5265</csId><csNm>순천만가든마켓</csNm><lat>34.93087</lat><longi>127.51582</longi><statUpdateDatetime>2023-06-15 16:06:14</statUpdateDatetime></item><item><addr>전라남도 순천시 조곡동 82-170 철도운동장 주차장</addr><chargeTp>2</chargeTp><cpId>11837</cpId><cpNm>급속01</cpNm><cpStat>1</cpStat><cpTp>7</cpTp><csId>5268</csId><csNm>철도운동장</csNm><lat>34.979755</lat><longi>127.499714</longi><statUpdateDatetime>2023-06-15 16:06:43</statUpdateDatetime></item><item><addr>대구광역시 중구 대봉로 208-1 (대봉동, 중구청라국민체육센터) 지하주차장</addr><chargeTp>2</chargeTp><cpId>11835</cpId><cpNm>급속02</cpNm><cpStat>1</cpStat><cpTp>7</cpTp><csId>5267</csId><csNm>중구 청라국민체육센터 지하</csNm><lat>35.85705</lat><longi>128.60313</longi><statUpdateDatetime>2023-06-15 16:05:39</statUpdateDatetime></item><item><addr>전라남도 순천시 연향동 813-7 순천만가든마켓 주차장 입구 중앙</addr><chargeTp>2</chargeTp><cpId>11831</cpId><cpNm>급속01</cpNm><cpStat>1</cpStat><cpTp>7</cpTp><csId>5265</csId><csNm>순천만가든마켓</csNm><lat>34.93087</lat><longi>127.51582</longi><statUpdateDatetime>2023-06-15 16:06:05</statUpdateDatetime></item><item><addr>전라남도 순천시 풍덕동 1264 아랫장주차장 입구 왼편</addr><chargeTp>2</chargeTp><cpId>11840</cpId><cpNm>급속01</cpNm><cpStat>3</cpStat><cpTp>7</cpTp><csId>5270</csId><csNm>아랫장주차장</csNm><lat>34.94509</lat><longi>127.49541</longi><statUpdateDatetime>2023-06-15 16:07:39</statUpdateDatetime></item><item><addr>전라남도 순천시 풍덕동 1264 아랫장주차장 입구 왼편</addr><chargeTp>2</chargeTp><cpId>11841</cpId><cpNm>급속02</cpNm><cpStat>1</cpStat><cpTp>7</cpTp><csId>5270</csId><csNm>아랫장주차장</csNm><lat>34.94509</lat><longi>127.49541</longi><statUpdateDatetime>2023-06-15 16:06:07</statUpdateDatetime></item><item><addr>경기도 의정부시 녹양동 413 입구왼쪽</addr><chargeTp>2</chargeTp><cpId>11860</cpId><cpNm>급속02</cpNm><cpStat>1</cpStat><cpTp>7</cpTp><csId>3431</csId><csNm>녹양환승 공영주차장</csNm><lat>37.760626</lat><longi>127.041833</longi><statUpdateDatetime>2023-06-15 16:06:13</statUpdateDatetime></item><item><addr>경기도 의정부시 가능동 362-3 주차장</addr><chargeTp>2</chargeTp><cpId>11862</cpId><cpNm>급속02</cpNm><cpStat>1</cpStat><cpTp>7</cpTp><csId>3744</csId><csNm>가능1동 5공영주차장</csNm><lat>37.75318176729613</lat><longi>127.03652723587974</longi><statUpdateDatetime>2023-06-15 16:05:34</statUpdateDatetime></item><item><addr>경기도 의정부시 녹양동 413 입구왼쪽</addr><chargeTp>2</chargeTp><cpId>11861</cpId><cpNm>급속03</cpNm><cpStat>1</cpStat><cpTp>7</cpTp><csId>3431</csId><csNm>녹양환승 공영주차장</csNm><lat>37.760626</lat><longi>127.041833</longi><statUpdateDatetime>2023-06-15 16:06:42</statUpdateDatetime></item><item><addr>경기도 의정부시 가능동 362-3 주차장</addr><chargeTp>2</chargeTp><cpId>11863</cpId><cpNm>급속03</cpNm><cpStat>1</cpStat><cpTp>7</cpTp><csId>3744</csId><csNm>가능1동 5공영주차장</csNm><lat>37.75318176729613</lat><longi>127.03652723587974</longi><statUpdateDatetime>2023-06-15 16:05:28</statUpdateDatetime></item><item><addr>경상남도 창원시 진해구 소사동 205-146 소사공용주차장 안</addr><chargeTp>2</chargeTp><cpId>11963</cpId><cpNm>급속02</cpNm><cpStat>1</cpStat><cpTp>7</cpTp><csId>5348</csId><csNm>소사로5번길 공영주차장</csNm><lat>35.125714648764415</lat><longi>128.7811992412146</longi><statUpdateDatetime>2023-06-15 16:05:57</statUpdateDatetime></item><item><addr>경상북도 영천시 화산면 연지길 16 화산면 행정복지센터 주차장</addr><chargeTp>2</chargeTp><cpId>11212</cpId><cpNm>급속01</cpNm><cpStat>3</cpStat><cpTp>7</cpTp><csId>4862</csId><csNm>화산면행정복지센터</csNm><lat>36.02024683</lat><longi>128.85208429</longi><statUpdateDatetime>2023-06-15 16:05:51</statUpdateDatetime></item><item><addr>경상북도 영천시 완산동 917-3 광장식자재마트 주차장</addr><chargeTp>2</chargeTp><cpId>11210</cpId><cpNm>급속01</cpNm><cpStat>1</cpStat><cpTp>7</cpTp><csId>4861</csId><csNm>광장식자재마트</csNm><lat>35.96108799</lat><longi>128.94072737</longi><statUpdateDatetime>2023-06-15 16:05:17</statUpdateDatetime></item><item><addr>경상북도 영천시 완산동 917-3 광장식자재마트 주차장</addr><chargeTp>2</chargeTp><cpId>11211</cpId><cpNm>급속02</cpNm><cpStat>1</cpStat><cpTp>7</cpTp><csId>4861</csId><csNm>광장식자재마트</csNm><lat>35.96108799</lat><longi>128.94072737</longi><statUpdateDatetime>2023-06-15 16:08:03</statUpdateDatetime></item><item><addr>경기도 남양주시 금곡동 185-10 후문 주차장</addr><chargeTp>2</chargeTp><cpId>11965</cpId><cpNm>급속01</cpNm><cpStat>1</cpStat><cpTp>7</cpTp><csId>5357</csId><csNm>남양주제1청사 주차장</csNm><lat>37.635765710412</lat><longi>127.216463233997</longi><statUpdateDatetime>2023-06-15 16:06:53</statUpdateDatetime></item><item><addr>경기도 남양주시 금곡동 185-10 후문 주차장</addr><chargeTp>2</chargeTp><cpId>11966</cpId><cpNm>급속02</cpNm><cpStat>1</cpStat><cpTp>7</cpTp><csId>5357</csId><csNm>남양주제1청사 주차장</csNm><lat>37.635765710412</lat><longi>127.216463233997</longi><statUpdateDatetime>2023-06-15 16:06:33</statUpdateDatetime></item><item><addr>경기도 남양주시 조안면 능내리 56-32 다산생태공원 주차장 입구</addr><chargeTp>2</chargeTp><cpId>11968</cpId><cpNm>급속01</cpNm><cpStat>1</cpStat><cpTp>7</cpTp><csId>5358</csId><csNm>다산생태공원 제1공영주차장</csNm><lat>37.514102927542844</lat><longi>127.29857282934304</longi><statUpdateDatetime>2023-06-15 16:06:08</statUpdateDatetime></item><item><addr>경기도 남양주시 호평동 546-6 늘을택시쉼터 좌측</addr><chargeTp>2</chargeTp><cpId>11967</cpId><cpNm>급속01</cpNm><cpStat>2</cpStat><cpTp>7</cpTp><csId>5359</csId><csNm>남늘을택시쉼터</csNm><lat>37.6543698261086</lat><longi>127.238246479396</longi><statUpdateDatetime>2023-06-15 16:05:02</statUpdateDatetime></item><item><addr>경기도 남양주시 와부읍 팔당리 243-9 팔당역 공영주차장 입구</addr><chargeTp>2</chargeTp><cpId>11969</cpId><cpNm>급속01</cpNm><cpStat>1</cpStat><cpTp>7</cpTp><csId>5360</csId><csNm>팔당역 공영주차장</csNm><lat>37.545961883330676</lat><longi>127.24488723596865</longi><statUpdateDatetime>2023-06-15 16:06:58</statUpdateDatetime></item><item><addr>경상남도 거제시 고현동 910 거제시체육관 옥외주차장</addr><chargeTp>2</chargeTp><cpId>11983</cpId><cpNm>급속01</cpNm><cpStat>1</cpStat><cpTp>7</cpTp><csId>5203</csId><csNm>거제시체육관</csNm><lat>34.88209706712272</lat><longi>128.61711296738213</longi><statUpdateDatetime>2023-06-15 16:05:08</statUpdateDatetime></item><item><addr>경상남도 거제시 장승포동 426-33 거제문화예술회관 옥외주차장</addr><chargeTp>2</chargeTp><cpId>11982</cpId><cpNm>급속01</cpNm><cpStat>1</cpStat><cpTp>7</cpTp><csId>5204</csId><csNm>거제문화예술회관</csNm><lat>34.8671040856492</lat><longi>128.72327677597704</longi><statUpdateDatetime>2023-06-15 16:05:58</statUpdateDatetime></item><item><addr>경상남도 합천군 용주면 고품리 910-210 주차장 내</addr><chargeTp>2</chargeTp><cpId>11993</cpId><cpNm>급속01</cpNm><cpStat>1</cpStat><cpTp>7</cpTp><csId>5369</csId><csNm>경상남도안전체험관</csNm><lat>35.55386659522862</lat><longi>128.11352744817293</longi><statUpdateDatetime>2023-06-15 16:06:00</statUpdateDatetime></item><item><addr>경상남도 합천군 용주면 고품리 910-210 주차장 내</addr><chargeTp>2</chargeTp><cpId>11995</cpId><cpNm>급속03</cpNm><cpStat>1</cpStat><cpTp>7</cpTp><csId>5369</csId><csNm>경상남도안전체험관</csNm><lat>35.55386659522862</lat><longi>128.11352744817293</longi><statUpdateDatetime>2023-06-15 16:05:59</statUpdateDatetime></item><item><addr>경상남도 합천군 용주면 고품리 910-210 주차장 내</addr><chargeTp>2</chargeTp><cpId>11996</cpId><cpNm>급속04</cpNm><cpStat>1</cpStat><cpTp>7</cpTp><csId>5369</csId><csNm>경상남도안전체험관</csNm><lat>35.55386659522862</lat><longi>128.11352744817293</longi><statUpdateDatetime>2023-06-15 16:05:55</statUpdateDatetime></item><item><addr>경상남도 합천군 용주면 고품리 910-210 주차장 내</addr><chargeTp>2</chargeTp><cpId>11997</cpId><cpNm>급속05</cpNm><cpStat>3</cpStat><cpTp>7</cpTp><csId>5369</csId><csNm>경상남도안전체험관</csNm><lat>35.55386659522862</lat><longi>128.11352744817293</longi><statUpdateDatetime>2023-06-15 16:06:20</statUpdateDatetime></item><item><addr>경상남도 합천군 용주면 고품리 910-210 주차장 내</addr><chargeTp>2</chargeTp><cpId>11994</cpId><cpNm>급속02</cpNm><cpStat>1</cpStat><cpTp>7</cpTp><csId>5369</csId><csNm>경상남도안전체험관</csNm><lat>35.55386659522862</lat><longi>128.11352744817293</longi><statUpdateDatetime>2023-06-15 16:05:53</statUpdateDatetime></item><item><addr>경상북도 군위군 군위읍 서부리 420-5 주차장</addr><chargeTp>2</chargeTp><cpId>12017</cpId><cpNm>급속01</cpNm><cpStat>1</cpStat><cpTp>7</cpTp><csId>5376</csId><csNm>군위한전 전기차충전소 급속 100kw</csNm><lat>36.23822861857975</lat><longi>128.566369559879</longi><statUpdateDatetime>2023-06-15 16:05:32</statUpdateDatetime></item><item><addr>강원도 춘천시 후평동 198-53 외부 주차장</addr><chargeTp>2</chargeTp><cpId>12019</cpId><cpNm>급속02</cpNm><cpStat>1</cpStat><cpTp>7</cpTp><csId>5385</csId><csNm>춘천바이오산업진흥원</csNm><lat>37.89297650995195</lat><longi>127.7442113231054</longi><statUpdateDatetime>2023-06-15 16:05:49</statUpdateDatetime></item><item><addr>경기도 남양주시 퇴계원읍 퇴계원리 221-3 퇴계원읍 종합행정타운 주차장</addr><chargeTp>2</chargeTp><cpId>12024</cpId><cpNm>급속01</cpNm><cpStat>1</cpStat><cpTp>7</cpTp><csId>5387</csId><csNm>퇴계원종합행정타운</csNm><lat>37.6493332</lat><longi>127.14467</longi><statUpdateDatetime>2023-06-15 16:05:29</statUpdateDatetime></item><item><addr>경기도 남양주시 퇴계원읍 퇴계원리 229-4 퇴계원 제4 도서관 앞 공영주차장</addr><chargeTp>2</chargeTp><cpId>12025</cpId><cpNm>급속01</cpNm><cpStat>1</cpStat><cpTp>7</cpTp><csId>5388</csId><csNm>퇴계원제4공영주차장</csNm><lat>37.64888</lat><longi>127.14563</longi><statUpdateDatetime>2023-06-15 16:05:31</statUpdateDatetime></item><item><addr>경기도 안양시 동안구 비산동 411-8 주차장</addr><chargeTp>2</chargeTp><cpId>12026</cpId><cpNm>급속01</cpNm><cpStat>2</cpStat><cpTp>7</cpTp><csId>5389</csId><csNm>부방유통</csNm><lat>37.39848577634661</lat><longi>126.93532548466902</longi><statUpdateDatetime>2023-06-15 16:05:00</statUpdateDatetime></item><item><addr>경기도 안양시 동안구 비산동 411-8 주차장</addr><chargeTp>2</chargeTp><cpId>12027</cpId><cpNm>급속02</cpNm><cpStat>1</cpStat><cpTp>7</cpTp><csId>5389</csId><csNm>부방유통</csNm><lat>37.39848577634661</lat><longi>126.93532548466902</longi><statUpdateDatetime>2023-06-15 16:05:27</statUpdateDatetime></item><item><addr>경기도 안양시 만안구 성결대학로 53 (안양동, 성결대학교) 주차장</addr><chargeTp>2</chargeTp><cpId>12028</cpId><cpNm>급속01</cpNm><cpStat>1</cpStat><cpTp>7</cpTp><csId>5390</csId><csNm>성결대학교</csNm><lat>37.38020858791698</lat><longi>126.92870784233992</longi><statUpdateDatetime>2023-06-15 16:05:27</statUpdateDatetime></item><item><addr>강원도 인제군 인제읍 상동리 349-6 주차장</addr><chargeTp>2</chargeTp><cpId>12031</cpId><cpNm>급속02</cpNm><cpStat>1</cpStat><cpTp>7</cpTp><csId>5384</csId><csNm>인제군청</csNm><lat>38.0696142770535</lat><longi>128.170258250661</longi><statUpdateDatetime>2023-06-15 16:05:31</statUpdateDatetime></item><item><addr>강원도 인제군 인제읍 남북리 789-1 보건소 부지내</addr><chargeTp>2</chargeTp><cpId>12032</cpId><cpNm>급속01</cpNm><cpStat>1</cpStat><cpTp>7</cpTp><csId>5377</csId><csNm>인제군 보건소</csNm><lat>38.06336855175445</lat><longi>128.1687612093293</longi><statUpdateDatetime>2023-06-15 16:05:37</statUpdateDatetime></item><item><addr>강원도 인제군 인제읍 남북리 789-1 보건소 부지내</addr><chargeTp>2</chargeTp><cpId>12033</cpId><cpNm>급속02</cpNm><cpStat>1</cpStat><cpTp>7</cpTp><csId>5377</csId><csNm>인제군 보건소</csNm><lat>38.06336855175445</lat><longi>128.1687612093293</longi><statUpdateDatetime>2023-06-15 16:05:43</statUpdateDatetime></item><item><addr>전라남도 영광군 영광읍 신하리 329 청사 좌측주차장</addr><chargeTp>2</chargeTp><cpId>12042</cpId><cpNm>급속01</cpNm><cpStat>1</cpStat><cpTp>7</cpTp><csId>5325</csId><csNm>한국농어촌공사 영광지사</csNm><lat>35.2744272180641</lat><longi>126.492287887228</longi><statUpdateDatetime>2023-06-15 16:06:21</statUpdateDatetime></item><item><addr>전라남도 영광군 영광읍 신하리 329 청사 좌측주차장</addr><chargeTp>2</chargeTp><cpId>12043</cpId><cpNm>급속02</cpNm><cpStat>1</cpStat><cpTp>7</cpTp><csId>5325</csId><csNm>한국농어촌공사 영광지사</csNm><lat>35.2744272180641</lat><longi>126.492287887228</longi><statUpdateDatetime>2023-06-15 16:05:29</statUpdateDatetime></item><item><addr>강원도 태백시 황지동 274-735 주차장</addr><chargeTp>2</chargeTp><cpId>12052</cpId><cpNm>급속01</cpNm><cpStat>1</cpStat><cpTp>7</cpTp><csId>5403</csId><csNm>황연동행정복지센터</csNm><lat>37.17866891928955</lat><longi>128.98673960508015</longi><statUpdateDatetime>2023-06-15 16:05:52</statUpdateDatetime></item><item><addr>경기도 가평군 청평면 하천리 284-5 관외 주차장</addr><chargeTp>2</chargeTp><cpId>12059</cpId><cpNm>급속01</cpNm><cpStat>1</cpStat><cpTp>7</cpTp><csId>5400</csId><csNm>청평소방서</csNm><lat>37.753459</lat><longi>127.434188</longi><statUpdateDatetime>2023-06-15 16:05:04</statUpdateDatetime></item><item><addr>경기도 가평군 청평면 청평리 333-13 지상주차장</addr><chargeTp>2</chargeTp><cpId>12060</cpId><cpNm>급속01</cpNm><cpStat>1</cpStat><cpTp>7</cpTp><csId>5402</csId><csNm>청평호반문화체육센터</csNm><lat>37.739202</lat><longi>127.424343</longi><statUpdateDatetime>2023-06-15 16:05:43</statUpdateDatetime></item><item><addr>경기도 양주시 백석읍 가업리 14-73 감동보금자리요양원 입구 주차장</addr><chargeTp>2</chargeTp><cpId>12064</cpId><cpNm>급속01</cpNm><cpStat>1</cpStat><cpTp>7</cpTp><csId>5282</csId><csNm>감동보금자리요양원</csNm><lat>37.79222486163981</lat><longi>126.98214968805966</longi><statUpdateDatetime>2023-06-15 16:06:05</statUpdateDatetime></item><item><addr>경기도 양주시 광적면 석우리 376-2 광적농협 경제사업장 주차장</addr><chargeTp>2</chargeTp><cpId>12065</cpId><cpNm>급속01</cpNm><cpStat>1</cpStat><cpTp>7</cpTp><csId>5406</csId><csNm>광적농협 경제사업장</csNm><lat>37.83097668708457</lat><longi>126.97829239669288</longi><statUpdateDatetime>2023-06-15 16:05:02</statUpdateDatetime></item><item><addr>경기도 의정부시 용현동 산 33-1 영석고등학교 다목적체육관 주차장</addr><chargeTp>2</chargeTp><cpId>12062</cpId><cpNm>급속01</cpNm><cpStat>1</cpStat><cpTp>7</cpTp><csId>5281</csId><csNm>영석고등학교</csNm><lat>37.7369800360311</lat><longi>127.074674707646</longi><statUpdateDatetime>2023-06-15 16:06:32</statUpdateDatetime></item><item><addr>경기도 의정부시 용현동 산 33-1 영석고등학교 다목적체육관 주차장</addr><chargeTp>2</chargeTp><cpId>12063</cpId><cpNm>급속02</cpNm><cpStat>1</cpStat><cpTp>7</cpTp><csId>5281</csId><csNm>영석고등학교</csNm><lat>37.7369800360311</lat><longi>127.074674707646</longi><statUpdateDatetime>2023-06-15 16:06:14</statUpdateDatetime></item><item><addr>경기도 의정부시 의정부동 488 백석천 지하2 공영주차장</addr><chargeTp>2</chargeTp><cpId>12067</cpId><cpNm>급속01</cpNm><cpStat>1</cpStat><cpTp>7</cpTp><csId>5280</csId><csNm>백석천 지하2 공영주차장</csNm><lat>37.73856150444198</lat><longi>127.03586770472881</longi><statUpdateDatetime>2023-06-15 16:05:23</statUpdateDatetime></item><item><addr>경기도 의정부시 의정부동 489 백석천 지하1 공영주차장</addr><chargeTp>2</chargeTp><cpId>12066</cpId><cpNm>급속01</cpNm><cpStat>1</cpStat><cpTp>7</cpTp><csId>5278</csId><csNm>백석천 지하1 공영주차장</csNm><lat>37.73761766702339</lat><longi>127.0361026583127</longi><statUpdateDatetime>2023-06-15 16:05:13</statUpdateDatetime></item><item><addr>경기도 의정부시 고산동 471-1 고산지구 제1공영주차장</addr><chargeTp>2</chargeTp><cpId>12069</cpId><cpNm>급속01</cpNm><cpStat>1</cpStat><cpTp>7</cpTp><csId>5410</csId><csNm>고산지구 제1공영주차장</csNm><lat>37.72912967519878</lat><longi>127.105181748745</longi><statUpdateDatetime>2023-06-15 16:05:17</statUpdateDatetime></item><item><addr>경기도 의정부시 의정부동 232-40 의정부1동 공영주차장</addr><chargeTp>2</chargeTp><cpId>12068</cpId><cpNm>급속01</cpNm><cpStat>1</cpStat><cpTp>7</cpTp><csId>5409</csId><csNm>의정부1동 공영주차장</csNm><lat>37.748143168363555</lat><longi>127.04879896114715</longi><statUpdateDatetime>2023-06-15 16:05:31</statUpdateDatetime></item><item><addr>경기도 구리시 수택동 436 지상</addr><chargeTp>2</chargeTp><cpId>12070</cpId><cpNm>급속01</cpNm><cpStat>3</cpStat><cpTp>7</cpTp><csId>5413</csId><csNm>구리 제9 공영주차장</csNm><lat>37.59579698321616</lat><longi>127.140767358238</longi><statUpdateDatetime>2023-06-14 17:40:00</statUpdateDatetime></item><item><addr>울산광역시 울주군 언양읍 동부리 388-2 </addr><chargeTp>2</chargeTp><cpId>11286</cpId><cpNm>급속01</cpNm><cpStat>2</cpStat><cpTp>7</cpTp><csId>4928</csId><csNm>언양읍 행정복지센터</csNm><lat>35.56935881065087</lat><longi>129.12538898175384</longi><statUpdateDatetime>2023-06-15 16:05:54</statUpdateDatetime></item><item><addr>울산광역시 울주군 언양읍 동부리 388-2 </addr><chargeTp>2</chargeTp><cpId>11287</cpId><cpNm>급속02</cpNm><cpStat>1</cpStat><cpTp>7</cpTp><csId>4928</csId><csNm>언양읍 행정복지센터</csNm><lat>35.56935881065087</lat><longi>129.12538898175384</longi><statUpdateDatetime>2023-06-15 16:05:53</statUpdateDatetime></item><item><addr>울산광역시 울주군 언양읍 반연리 100 반연리184 과학기술원교수아파트주차장</addr><chargeTp>2</chargeTp><cpId>11289</cpId><cpNm>급속02</cpNm><cpStat>1</cpStat><cpTp>7</cpTp><csId>4929</csId><csNm>울산과학기술원</csNm><lat>35.5763118841393</lat><longi>129.189231867684</longi><statUpdateDatetime>2023-06-15 16:05:50</statUpdateDatetime></item><item><addr>울산광역시 울주군 언양읍 반연리 100 반연리184 과학기술원교수아파트주차장</addr><chargeTp>2</chargeTp><cpId>11291</cpId><cpNm>급속04</cpNm><cpStat>1</cpStat><cpTp>7</cpTp><csId>4929</csId><csNm>울산과학기술원</csNm><lat>35.5763118841393</lat><longi>129.189231867684</longi><statUpdateDatetime>2023-06-15 16:05:53</statUpdateDatetime></item><item><addr>울산광역시 울주군 삼동면 조일리 1533 </addr><chargeTp>2</chargeTp><cpId>11292</cpId><cpNm>급속01</cpNm><cpStat>1</cpStat><cpTp>7</cpTp><csId>4930</csId><csNm>울산하늘공원</csNm><lat>35.4713036956925</lat><longi>129.1341585376468</longi><statUpdateDatetime>2023-06-15 16:05:58</statUpdateDatetime></item><item><addr>울산광역시 울주군 언양읍 반연리 100 반연리184 과학기술원교수아파트주차장</addr><chargeTp>2</chargeTp><cpId>11288</cpId><cpNm>급속01</cpNm><cpStat>1</cpStat><cpTp>7</cpTp><csId>4929</csId><csNm>울산과학기술원</csNm><lat>35.5763118841393</lat><longi>129.189231867684</longi><statUpdateDatetime>2023-06-15 16:05:56</statUpdateDatetime></item><item><addr>울산광역시 울주군 언양읍 반연리 100 반연리184 과학기술원교수아파트주차장</addr><chargeTp>2</chargeTp><cpId>11290</cpId><cpNm>급속03</cpNm><cpStat>1</cpStat><cpTp>7</cpTp><csId>4929</csId><csNm>울산과학기술원</csNm><lat>35.5763118841393</lat><longi>129.189231867684</longi><statUpdateDatetime>2023-06-15 16:05:54</statUpdateDatetime></item><item><addr>광주광역시 북구 오룡동 1 대학B동 앞</addr><chargeTp>2</chargeTp><cpId>11326</cpId><cpNm>급속01</cpNm><cpStat>1</cpStat><cpTp>7</cpTp><csId>4949</csId><csNm>GIST 대학B동</csNm><lat>35.23044997888166</lat><longi>126.84417212307879</longi><statUpdateDatetime>2023-06-15 16:05:36</statUpdateDatetime></item><item><addr>광주광역시 광산구 우산동 220-14 제2주차장</addr><chargeTp>2</chargeTp><cpId>11398</cpId><cpNm>급속01</cpNm><cpStat>4</cpStat><cpTp>13</cpTp><csId>5024</csId><csNm>임팩트명품백화점</csNm><lat>35.14346393057853</lat><longi>126.82228137176417</longi><statUpdateDatetime>2023-06-14 14:23:29</statUpdateDatetime></item><item><addr>광주광역시 광산구 우산동 220-14 제2주차장</addr><chargeTp>2</chargeTp><cpId>11399</cpId><cpNm>급속02</cpNm><cpStat>1</cpStat><cpTp>13</cpTp><csId>5024</csId><csNm>임팩트명품백화점</csNm><lat>35.14346393057853</lat><longi>126.82228137176417</longi><statUpdateDatetime>2023-06-15 16:05:00</statUpdateDatetime></item><item><addr>충청북도 진천군 덕산읍 산수리 1102 주차장</addr><chargeTp>2</chargeTp><cpId>11425</cpId><cpNm>급속02</cpNm><cpStat>1</cpStat><cpTp>7</cpTp><csId>4988</csId><csNm>진천산수산업단지</csNm><lat>36.8967522016565</lat><longi>127.484698010824</longi><statUpdateDatetime>2023-06-15 16:06:14</statUpdateDatetime></item><item><addr>충청북도 진천군 진천읍 벽암리 570-1 주차장</addr><chargeTp>2</chargeTp><cpId>11429</cpId><cpNm>급속01</cpNm><cpStat>1</cpStat><cpTp>7</cpTp><csId>4989</csId><csNm>생거진천종합사회복지관</csNm><lat>36.8611360301706</lat><longi>127.439471461178</longi><statUpdateDatetime>2023-06-15 16:06:50</statUpdateDatetime></item><item><addr>충청북도 충주시 지현동 507 주차장</addr><chargeTp>2</chargeTp><cpId>11423</cpId><cpNm>급속01</cpNm><cpStat>1</cpStat><cpTp>7</cpTp><csId>4943</csId><csNm>지현동 사무소</csNm><lat>36.9682813422422</lat><longi>127.932254825648</longi><statUpdateDatetime>2023-06-15 16:06:47</statUpdateDatetime></item><item><addr>충청북도 충주시 단월동 322 주차장</addr><chargeTp>2</chargeTp><cpId>11427</cpId><cpNm>급속01</cpNm><cpStat>1</cpStat><cpTp>7</cpTp><csId>4942</csId><csNm>건국대학교 글로벌캠퍼스</csNm><lat>36.9494498987487</lat><longi>127.907539952398</longi><statUpdateDatetime>2023-06-15 16:06:07</statUpdateDatetime></item><item><addr>충청북도 충주시 단월동 322 주차장</addr><chargeTp>2</chargeTp><cpId>11428</cpId><cpNm>급속02</cpNm><cpStat>1</cpStat><cpTp>7</cpTp><csId>4942</csId><csNm>건국대학교 글로벌캠퍼스</csNm><lat>36.9494498987487</lat><longi>127.907539952398</longi><statUpdateDatetime>2023-06-15 16:06:12</statUpdateDatetime></item><item><addr>충청북도 진천군 덕산읍 산수리 1102 주차장</addr><chargeTp>2</chargeTp><cpId>11424</cpId><cpNm>급속01</cpNm><cpStat>1</cpStat><cpTp>7</cpTp><csId>4988</csId><csNm>진천산수산업단지</csNm><lat>36.8967522016565</lat><longi>127.484698010824</longi><statUpdateDatetime>2023-06-15 16:06:07</statUpdateDatetime></item><item><addr>충청북도 충주시 중앙탑면 탑평리 137 주차장</addr><chargeTp>2</chargeTp><cpId>11426</cpId><cpNm>급속01</cpNm><cpStat>1</cpStat><cpTp>7</cpTp><csId>4941</csId><csNm>탄금호국제조정경기장</csNm><lat>37.0195494472326</lat><longi>127.8642281105704</longi><statUpdateDatetime>2023-06-15 16:06:09</statUpdateDatetime></item><item><addr>대전광역시 유성구 지족동 1024-2 노은3동 행정복지센터 지하주차장</addr><chargeTp>2</chargeTp><cpId>11431</cpId><cpNm>급속01</cpNm><cpStat>1</cpStat><cpTp>7</cpTp><csId>5033</csId><csNm>노은3동 행정복지센터</csNm><lat>36.386815702899426</lat><longi>127.30787092985316</longi><statUpdateDatetime>2023-06-15 16:06:49</statUpdateDatetime></item><item><addr>충청남도 계룡시 금암동 153-1 금암동 공영주차장</addr><chargeTp>2</chargeTp><cpId>11455</cpId><cpNm>급속01</cpNm><cpStat>1</cpStat><cpTp>7</cpTp><csId>5050</csId><csNm>금암동 공영주차장</csNm><lat>36.273294781641</lat><longi>127.254256412366</longi><statUpdateDatetime>2023-06-15 16:06:08</statUpdateDatetime></item><item><addr>대전광역시 서구 가장동 25-5 가장동 공영주차장</addr><chargeTp>2</chargeTp><cpId>11460</cpId><cpNm>급속02</cpNm><cpStat>1</cpStat><cpTp>7</cpTp><csId>5053</csId><csNm>가장동 공영주차장</csNm><lat>36.3301871759387</lat><longi>127.388874423629</longi><statUpdateDatetime>2023-06-15 16:05:28</statUpdateDatetime></item><item><addr>대전광역시 서구 정림동 258-13 대전정수원 주차장</addr><chargeTp>2</chargeTp><cpId>11454</cpId><cpNm>급속01</cpNm><cpStat>1</cpStat><cpTp>7</cpTp><csId>5049</csId><csNm>대전정수원</csNm><lat>36.3149750015101</lat><longi>127.360109158248</longi><statUpdateDatetime>2023-06-15 16:07:41</statUpdateDatetime></item><item><addr>충청남도 계룡시 금암동 153-1 금암동 공영주차장</addr><chargeTp>2</chargeTp><cpId>11456</cpId><cpNm>급속02</cpNm><cpStat>1</cpStat><cpTp>7</cpTp><csId>5050</csId><csNm>금암동 공영주차장</csNm><lat>36.273294781641</lat><longi>127.254256412366</longi><statUpdateDatetime>2023-06-15 16:06:09</statUpdateDatetime></item><item><addr>충청남도 계룡시 두마면 두계리 134-2 계룡역 공영주차장</addr><chargeTp>2</chargeTp><cpId>11457</cpId><cpNm>급속01</cpNm><cpStat>1</cpStat><cpTp>7</cpTp><csId>5052</csId><csNm>계룡역 공영주차장</csNm><lat>36.2721137994159</lat><longi>127.2622567503</longi><statUpdateDatetime>2023-06-15 16:07:47</statUpdateDatetime></item><item><addr>충청남도 계룡시 금암동 180-1 금암동 주민센터 주차장</addr><chargeTp>2</chargeTp><cpId>11458</cpId><cpNm>급속01</cpNm><cpStat>1</cpStat><cpTp>7</cpTp><csId>5051</csId><csNm>금암동 주민센터</csNm><lat>36.2727463364815</lat><longi>127.246280116417</longi><statUpdateDatetime>2023-06-15 16:07:09</statUpdateDatetime></item><item><addr>대전광역시 서구 가장동 25-5 가장동 공영주차장</addr><chargeTp>2</chargeTp><cpId>11459</cpId><cpNm>급속01</cpNm><cpStat>1</cpStat><cpTp>7</cpTp><csId>5053</csId><csNm>가장동 공영주차장</csNm><lat>36.3301871759387</lat><longi>127.388874423629</longi><statUpdateDatetime>2023-06-15 16:07:17</statUpdateDatetime></item><item><addr>광주광역시 서구 양동 438-79 빛나는 청춘 발산 공영주차장</addr><chargeTp>2</chargeTp><cpId>11472</cpId><cpNm>급속01</cpNm><cpStat>1</cpStat><cpTp>7</cpTp><csId>5067</csId><csNm>빛나는 청춘 발산 공영주차장</csNm><lat>35.1603285605735</lat><longi>126.89130627671</longi><statUpdateDatetime>2023-06-15 16:05:18</statUpdateDatetime></item><item><addr>서울특별시 중구 신당동 349-234 지하3층</addr><chargeTp>2</chargeTp><cpId>11473</cpId><cpNm>급속02</cpNm><cpStat>1</cpStat><cpTp>7</cpTp><csId>5059</csId><csNm>약수동공영주차장</csNm><lat>37.55215716918718</lat><longi>127.01314733693826</longi><statUpdateDatetime>2023-06-15 16:05:42</statUpdateDatetime></item><item><addr>서울특별시 중구 충무로5가 21 공영주차장 지하2층</addr><chargeTp>2</chargeTp><cpId>11475</cpId><cpNm>급속02</cpNm><cpStat>1</cpStat><cpTp>7</cpTp><csId>5058</csId><csNm>묵정공원 공영주차장</csNm><lat>37.56391591489656</lat><longi>127.00028579507574</longi><statUpdateDatetime>2023-06-15 16:05:44</statUpdateDatetime></item><item><addr>서울특별시 서대문구 신촌동 134 지하2층</addr><chargeTp>2</chargeTp><cpId>11476</cpId><cpNm>급속01</cpNm><cpStat>1</cpStat><cpTp>7</cpTp><csId>5064</csId><csNm>연세세브란스 에비슨의생명 연구센터</csNm><lat>37.56401896749603</lat><longi>126.94234571847366</longi><statUpdateDatetime>2023-06-15 16:06:49</statUpdateDatetime></item><item><addr>광주광역시 서구 덕흥동 570 덕흥동 공영주차장</addr><chargeTp>2</chargeTp><cpId>11470</cpId><cpNm>급속01</cpNm><cpStat>1</cpStat><cpTp>7</cpTp><csId>5065</csId><csNm>덕흥동 공영주차장</csNm><lat>35.1656122045436</lat><longi>126.837622208743</longi><statUpdateDatetime>2023-06-15 16:06:07</statUpdateDatetime></item><item><addr>서울특별시 중구 신당동 349-234 지하3층</addr><chargeTp>2</chargeTp><cpId>11471</cpId><cpNm>급속01</cpNm><cpStat>1</cpStat><cpTp>7</cpTp><csId>5059</csId><csNm>약수동공영주차장</csNm><lat>37.55215716918718</lat><longi>127.01314733693826</longi><statUpdateDatetime>2023-06-15 16:05:23</statUpdateDatetime></item><item><addr>서울특별시 종로구 연건동 28-21 암병원 주차장 지하5층</addr><chargeTp>2</chargeTp><cpId>11481</cpId><cpNm>급속02</cpNm><cpStat>1</cpStat><cpTp>7</cpTp><csId>5063</csId><csNm>서울대학교병원 암병동 주차장</csNm><lat>37.57878906942009</lat><longi>126.9976056364405</longi><statUpdateDatetime>2023-06-15 16:05:41</statUpdateDatetime></item><item><addr>서울특별시 중구 봉래동2가 122 롯데마트 입구 앞</addr><chargeTp>2</chargeTp><cpId>11468</cpId><cpNm>급속01</cpNm><cpStat>1</cpStat><cpTp>7</cpTp><csId>5057</csId><csNm>서울역(한화역사)</csNm><lat>37.55465586268411</lat><longi>126.97152305503907</longi><statUpdateDatetime>2023-06-15 16:05:37</statUpdateDatetime></item><item><addr>서울특별시 중구 봉래동2가 122 롯데마트 입구 앞</addr><chargeTp>2</chargeTp><cpId>11469</cpId><cpNm>급속02</cpNm><cpStat>1</cpStat><cpTp>7</cpTp><csId>5057</csId><csNm>서울역(한화역사)</csNm><lat>37.55465586268411</lat><longi>126.97152305503907</longi><statUpdateDatetime>2023-06-15 16:05:05</statUpdateDatetime></item><item><addr>서울특별시 중구 충무로5가 21 공영주차장 지하2층</addr><chargeTp>2</chargeTp><cpId>11474</cpId><cpNm>급속01</cpNm><cpStat>1</cpStat><cpTp>7</cpTp><csId>5058</csId><csNm>묵정공원 공영주차장</csNm><lat>37.56391591489656</lat><longi>127.00028579507574</longi><statUpdateDatetime>2023-06-15 16:00:37</statUpdateDatetime></item><item><addr>서울특별시 종로구 연건동 28-2 옥외주차장 지하2층하</addr><chargeTp>2</chargeTp><cpId>11482</cpId><cpNm>급속01</cpNm><cpStat>1</cpStat><cpTp>7</cpTp><csId>5060</csId><csNm>서울대학교병원 장례식장주차장</csNm><lat>37.580043688021874</lat><longi>126.996934823586</longi><statUpdateDatetime>2023-06-15 16:05:35</statUpdateDatetime></item><item><addr>서울특별시 종로구 연건동 28-21 대한외래 주차장 지하5층</addr><chargeTp>2</chargeTp><cpId>11478</cpId><cpNm>급속01</cpNm><cpStat>1</cpStat><cpTp>7</cpTp><csId>5062</csId><csNm>서울대학교병원 대한외래병동주차장</csNm><lat>37.57879132103655</lat><longi>126.99756318311252</longi><statUpdateDatetime>2023-06-15 16:05:32</statUpdateDatetime></item><item><addr>서울특별시 서대문구 신촌동 134 지하2층</addr><chargeTp>2</chargeTp><cpId>11477</cpId><cpNm>급속02</cpNm><cpStat>1</cpStat><cpTp>7</cpTp><csId>5064</csId><csNm>연세세브란스 에비슨의생명 연구센터</csNm><lat>37.56401896749603</lat><longi>126.94234571847366</longi><statUpdateDatetime>2023-06-15 16:05:17</statUpdateDatetime></item><item><addr>서울특별시 종로구 연건동 28-21 대한외래 주차장 지하5층</addr><chargeTp>2</chargeTp><cpId>11479</cpId><cpNm>급속02</cpNm><cpStat>1</cpStat><cpTp>7</cpTp><csId>5062</csId><csNm>서울대학교병원 대한외래병동주차장</csNm><lat>37.57879132103655</lat><longi>126.99756318311252</longi><statUpdateDatetime>2023-06-15 16:05:31</statUpdateDatetime></item><item><addr>서울특별시 종로구 연건동 28-21 암병원 주차장 지하5층</addr><chargeTp>2</chargeTp><cpId>11480</cpId><cpNm>급속01</cpNm><cpStat>1</cpStat><cpTp>7</cpTp><csId>5063</csId><csNm>서울대학교병원 암병동 주차장</csNm><lat>37.57878906942009</lat><longi>126.9976056364405</longi><statUpdateDatetime>2023-06-15 16:05:23</statUpdateDatetime></item><item><addr>서울특별시 종로구 연건동 28-2 옥외주차장 지하2층하</addr><chargeTp>2</chargeTp><cpId>11483</cpId><cpNm>급속02</cpNm><cpStat>1</cpStat><cpTp>7</cpTp><csId>5060</csId><csNm>서울대학교병원 장례식장주차장</csNm><lat>37.580043688021874</lat><longi>126.996934823586</longi><statUpdateDatetime>2023-06-15 16:05:37</statUpdateDatetime></item><item><addr>전라북도 무주군 무주읍 당산리 701 무주의료원</addr><chargeTp>2</chargeTp><cpId>11484</cpId><cpNm>급속01</cpNm><cpStat>1</cpStat><cpTp>7</cpTp><csId>5069</csId><csNm>무주의료원 충전소</csNm><lat>36.00508901257755</lat><longi>127.67168901695943</longi><statUpdateDatetime>2023-06-15 16:06:14</statUpdateDatetime></item><item><addr>전라북도 무주군 무주읍 당산리 623 무주장례식장</addr><chargeTp>2</chargeTp><cpId>11485</cpId><cpNm>급속01</cpNm><cpStat>1</cpStat><cpTp>7</cpTp><csId>5068</csId><csNm>무주장례식장 충전소</csNm><lat>36.006445</lat><longi>127.672074</longi><statUpdateDatetime>2023-06-15 16:06:10</statUpdateDatetime></item><item><addr>세종특별자치시 조치원읍 상리 120-7 청자장 주차장</addr><chargeTp>2</chargeTp><cpId>11466</cpId><cpNm>급속01</cpNm><cpStat>1</cpStat><cpTp>7</cpTp><csId>5008</csId><csNm>세종시 청자장</csNm><lat>36.6022604810022</lat><longi>127.30127712791112</longi><statUpdateDatetime>2023-06-15 16:06:19</statUpdateDatetime></item><item><addr>대전광역시 유성구 지족동 871-6 노은도서관 입구</addr><chargeTp>2</chargeTp><cpId>11489</cpId><cpNm>급속01</cpNm><cpStat>1</cpStat><cpTp>7</cpTp><csId>5034</csId><csNm>노은도서관</csNm><lat>36.38192666131163</lat><longi>127.32078389197876</longi><statUpdateDatetime>2023-06-15 16:06:23</statUpdateDatetime></item><item><addr>인천광역시 계양구 계산동 1060 계산택지1 공영주차장</addr><chargeTp>2</chargeTp><cpId>11512</cpId><cpNm>급속01</cpNm><cpStat>4</cpStat><cpTp>7</cpTp><csId>5081</csId><csNm>계산택지1 공영주차장</csNm><lat>37.541048919097086</lat><longi>126.73717172173636</longi><statUpdateDatetime>2023-06-11 04:50:41</statUpdateDatetime></item><item><addr>경상남도 산청군 신안면 외송리 621-10 주차장 오른쪽</addr><chargeTp>2</chargeTp><cpId>11533</cpId><cpNm>급속01</cpNm><cpStat>1</cpStat><cpTp>7</cpTp><csId>5092</csId><csNm>홍화원휴게소</csNm><lat>35.34943341536384</lat><longi>127.93518974823927</longi><statUpdateDatetime>2023-06-15 16:05:57</statUpdateDatetime></item></items><numOfRows>100</numOfRows><pageNo>32</pageNo><totalCount>3399</totalCount></body></response>
Response code: 200
<?xml version="1.0" encoding="UTF-8" standalone="yes"?><response><header><resultCode>00</resultCode><resultMsg>NORMAL SERVICE.</resultMsg></header><body><items><item><addr>경상남도 산청군 금서면 방곡리 722-6 주차장</addr><chargeTp>2</chargeTp><cpId>11534</cpId><cpNm>급속01</cpNm><cpStat>1</cpStat><cpTp>7</cpTp><csId>5093</csId><csNm>산청함양사건추모공원</csNm><lat>35.42693502595228</lat><longi>127.78074407438141</longi><statUpdateDatetime>2023-06-15 16:05:59</statUpdateDatetime></item><item><addr>경상남도 산청군 생초면 어서리 259 생초초등학교 맞은편 공터</addr><chargeTp>2</chargeTp><cpId>11532</cpId><cpNm>급속01</cpNm><cpStat>1</cpStat><cpTp>7</cpTp><csId>5091</csId><csNm>생초시장</csNm><lat>35.49421330037966</lat><longi>127.83598241661417</longi><statUpdateDatetime>2023-06-15 16:07:33</statUpdateDatetime></item><item><addr>전라북도 전주시 완산구 색장동 581 주차장 안쪽 전주 앞</addr><chargeTp>2</chargeTp><cpId>11553</cpId><cpNm>급속01</cpNm><cpStat>1</cpStat><cpTp>7</cpTp><csId>5010</csId><csNm>색장동만남의광장</csNm><lat>35.788004333075364</lat><longi>127.19341970582864</longi><statUpdateDatetime>2023-06-15 16:05:47</statUpdateDatetime></item><item><addr>전라북도 전주시 완산구 풍남동2가 44-1 메인 입구 진입 후 오른쪽</addr><chargeTp>2</chargeTp><cpId>11554</cpId><cpNm>급속01</cpNm><cpStat>2</cpStat><cpTp>7</cpTp><csId>5012</csId><csNm>한옥마을 공영주차장</csNm><lat>35.81834685831501</lat><longi>127.15328641404296</longi><statUpdateDatetime>2023-06-15 16:07:32</statUpdateDatetime></item><item><addr>경상남도 밀양시 산내면 용전리 37-1 주유소 입구쪽</addr><chargeTp>2</chargeTp><cpId>11552</cpId><cpNm>급속01</cpNm><cpStat>1</cpStat><cpTp>7</cpTp><csId>5104</csId><csNm>용전주유소</csNm><lat>35.561744009684645</lat><longi>128.8610300969812</longi><statUpdateDatetime>2023-06-15 16:05:29</statUpdateDatetime></item><item><addr>경상북도 안동시 풍천면 갈전리 1155 주차장3</addr><chargeTp>2</chargeTp><cpId>11575</cpId><cpNm>급속01</cpNm><cpStat>1</cpStat><cpTp>7</cpTp><csId>5085</csId><csNm>경상북도청</csNm><lat>36.57576704766229</lat><longi>128.50881616026467</longi><statUpdateDatetime>2023-06-15 16:08:28</statUpdateDatetime></item><item><addr>경기도 성남시 분당구 수내동 43 B1</addr><chargeTp>2</chargeTp><cpId>11640</cpId><cpNm>급속01</cpNm><cpStat>1</cpStat><cpTp>7</cpTp><csId>5159</csId><csNm>황새울국민체육센터</csNm><lat>37.38283846498155</lat><longi>127.11686820901293</longi><statUpdateDatetime>2023-06-15 16:05:26</statUpdateDatetime></item><item><addr>경상북도 고령군 쌍림면 백산리 98-6 용담문화복지센터 주차장</addr><chargeTp>2</chargeTp><cpId>11186</cpId><cpNm>급속01</cpNm><cpStat>1</cpStat><cpTp>7</cpTp><csId>4846</csId><csNm>용담권역문화복지센터</csNm><lat>35.67667167</lat><longi>128.20871620</longi><statUpdateDatetime>2023-06-15 16:05:36</statUpdateDatetime></item><item><addr>경상북도 고령군 성산면 용소리 207 용소보건진료소 주차장</addr><chargeTp>2</chargeTp><cpId>11187</cpId><cpNm>급속01</cpNm><cpStat>1</cpStat><cpTp>7</cpTp><csId>4847</csId><csNm>용소보건진료소</csNm><lat>35.77753230</lat><longi>128.36005391</longi><statUpdateDatetime>2023-06-15 16:05:30</statUpdateDatetime></item><item><addr>경상북도 고령군 다산면 벌지리 989-1 벌지1리 마을회 주차장</addr><chargeTp>2</chargeTp><cpId>11188</cpId><cpNm>급속01</cpNm><cpStat>1</cpStat><cpTp>7</cpTp><csId>4848</csId><csNm>벌지1리 마을회관</csNm><lat>35.81219089</lat><longi>128.38978824</longi><statUpdateDatetime>2023-06-15 16:05:40</statUpdateDatetime></item><item><addr>경상북도 고령군 대가야읍 왕릉로 56-5 고령군보건소 주차장</addr><chargeTp>2</chargeTp><cpId>11190</cpId><cpNm>급속01</cpNm><cpStat>1</cpStat><cpTp>7</cpTp><csId>4850</csId><csNm>고령군보건소</csNm><lat>35.72523517</lat><longi>128.26481374</longi><statUpdateDatetime>2023-06-15 16:05:32</statUpdateDatetime></item><item><addr>인천광역시 부평구 청천동 113 청천천공영주차장</addr><chargeTp>2</chargeTp><cpId>11645</cpId><cpNm>급속01</cpNm><cpStat>1</cpStat><cpTp>7</cpTp><csId>5162</csId><csNm>청천천공영주차장</csNm><lat>37.51672924803251</lat><longi>126.71506679706414</longi><statUpdateDatetime>2023-06-15 16:06:14</statUpdateDatetime></item><item><addr>인천광역시 계양구 계산동 1076-4 계산택지3 공영주차장</addr><chargeTp>2</chargeTp><cpId>11643</cpId><cpNm>급속01</cpNm><cpStat>1</cpStat><cpTp>7</cpTp><csId>5161</csId><csNm>계산택지3 공영주차장</csNm><lat>37.53529844114793</lat><longi>126.73622453543868</longi><statUpdateDatetime>2023-06-15 16:06:05</statUpdateDatetime></item><item><addr>인천광역시 부평구 청천동 113 청천천공영주차장</addr><chargeTp>2</chargeTp><cpId>11646</cpId><cpNm>급속02</cpNm><cpStat>1</cpStat><cpTp>7</cpTp><csId>5162</csId><csNm>청천천공영주차장</csNm><lat>37.51672924803251</lat><longi>126.71506679706414</longi><statUpdateDatetime>2023-06-15 16:06:01</statUpdateDatetime></item><item><addr>인천광역시 부평구 삼산동 428-2 1층 입구 우측</addr><chargeTp>2</chargeTp><cpId>11647</cpId><cpNm>급속01</cpNm><cpStat>1</cpStat><cpTp>7</cpTp><csId>5163</csId><csNm>삼산동 해돋이 공영주차장</csNm><lat>37.516895541658854</lat><longi>126.73322391336531</longi><statUpdateDatetime>2023-06-15 16:06:08</statUpdateDatetime></item><item><addr>인천광역시 계양구 계산동 1076-4 계산택지3 공영주차장</addr><chargeTp>2</chargeTp><cpId>11644</cpId><cpNm>급속02</cpNm><cpStat>1</cpStat><cpTp>7</cpTp><csId>5161</csId><csNm>계산택지3 공영주차장</csNm><lat>37.53529844114793</lat><longi>126.73622453543868</longi><statUpdateDatetime>2023-06-15 16:06:14</statUpdateDatetime></item><item><addr>서울특별시 양천구 신정동 321-4 지하 1층</addr><chargeTp>2</chargeTp><cpId>11650</cpId><cpNm>급속02</cpNm><cpStat>1</cpStat><cpTp>7</cpTp><csId>5164</csId><csNm>양천구청 지하주차장</csNm><lat>37.517105</lat><longi>126.866302</longi><statUpdateDatetime>2023-06-15 16:06:10</statUpdateDatetime></item><item><addr>경상북도 영주시 영주동 19-1 주차장</addr><chargeTp>2</chargeTp><cpId>11789</cpId><cpNm>급속01</cpNm><cpStat>1</cpStat><cpTp>7</cpTp><csId>5255</csId><csNm>영주동 공영주차장</csNm><lat>36.82831173159267</lat><longi>128.62603618051773</longi><statUpdateDatetime>2023-06-15 16:05:47</statUpdateDatetime></item><item><addr>경상북도 영주시 영주동 19-1 주차장</addr><chargeTp>2</chargeTp><cpId>11790</cpId><cpNm>급속02</cpNm><cpStat>1</cpStat><cpTp>7</cpTp><csId>5255</csId><csNm>영주동 공영주차장</csNm><lat>36.82831173159267</lat><longi>128.62603618051773</longi><statUpdateDatetime>2023-06-15 16:05:45</statUpdateDatetime></item><item><addr>서울특별시 서초구 양재동 215 양재하이브랜드 지하3층 주차장</addr><chargeTp>2</chargeTp><cpId>11800</cpId><cpNm>급속01</cpNm><cpStat>1</cpStat><cpTp>7</cpTp><csId>5182</csId><csNm>양재하이브랜드</csNm><lat>37.463367077201944</lat><longi>127.03701594728731</longi><statUpdateDatetime>2023-06-15 16:06:51</statUpdateDatetime></item><item><addr>경상북도 포항시 남구 대잠동 462-3 이동제4공원 공영주차장 B1F 입구</addr><chargeTp>2</chargeTp><cpId>11223</cpId><cpNm>급속01</cpNm><cpStat>1</cpStat><cpTp>7</cpTp><csId>4872</csId><csNm>이동제4공원 공영주차장</csNm><lat>36.02419479956415</lat><longi>129.33992739054878</longi><statUpdateDatetime>2023-06-15 16:05:52</statUpdateDatetime></item><item><addr>경기도 성남시 분당구 야탑동 757 지상</addr><chargeTp>2</chargeTp><cpId>11864</cpId><cpNm>급속01</cpNm><cpStat>3</cpStat><cpTp>7</cpTp><csId>5273</csId><csNm>성남아트센터</csNm><lat>37.39976060018229</lat><longi>127.12896763454736</longi><statUpdateDatetime>2023-06-15 16:05:44</statUpdateDatetime></item><item><addr>경기도 성남시 분당구 야탑동 757 지상</addr><chargeTp>2</chargeTp><cpId>11865</cpId><cpNm>급속02</cpNm><cpStat>1</cpStat><cpTp>7</cpTp><csId>5273</csId><csNm>성남아트센터</csNm><lat>37.39976060018229</lat><longi>127.12896763454736</longi><statUpdateDatetime>2023-06-15 16:05:58</statUpdateDatetime></item><item><addr>경기도 성남시 수정구 시흥동 17-8 지상</addr><chargeTp>2</chargeTp><cpId>11866</cpId><cpNm>급속01</cpNm><cpStat>2</cpStat><cpTp>7</cpTp><csId>5276</csId><csNm>시흥동 행정복지센터</csNm><lat>37.4218431735835</lat><longi>127.10788539775194</longi><statUpdateDatetime>2023-06-15 16:05:00</statUpdateDatetime></item><item><addr>경기도 성남시 중원구 하대원동 240-4 B2</addr><chargeTp>2</chargeTp><cpId>11867</cpId><cpNm>급속01</cpNm><cpStat>1</cpStat><cpTp>7</cpTp><csId>5274</csId><csNm>중원청소년수련관</csNm><lat>37.4299265459639</lat><longi>127.154978578337</longi><statUpdateDatetime>2023-06-15 16:05:32</statUpdateDatetime></item><item><addr>경기도 성남시 중원구 성남동 2874 B2</addr><chargeTp>2</chargeTp><cpId>11868</cpId><cpNm>급속01</cpNm><cpStat>1</cpStat><cpTp>7</cpTp><csId>5275</csId><csNm>성남동제2공영주차장</csNm><lat>37.432438034206775</lat><longi>127.1428957565789</longi><statUpdateDatetime>2023-06-15 16:05:35</statUpdateDatetime></item><item><addr>경기도 광주시 초월읍 대쌍령리 253-15 주차장</addr><chargeTp>2</chargeTp><cpId>11872</cpId><cpNm>급속01</cpNm><cpStat>1</cpStat><cpTp>7</cpTp><csId>5286</csId><csNm>초월도서관</csNm><lat>37.38751867651467</lat><longi>127.29133265810978</longi><statUpdateDatetime>2023-06-15 16:05:01</statUpdateDatetime></item><item><addr>경기도 광주시 오포읍 능평리 318-1 주차장</addr><chargeTp>2</chargeTp><cpId>11871</cpId><cpNm>급속01</cpNm><cpStat>2</cpStat><cpTp>7</cpTp><csId>5285</csId><csNm>능평도서관</csNm><lat>37.350377</lat><longi>127.166874</longi><statUpdateDatetime>2023-06-15 16:07:31</statUpdateDatetime></item><item><addr>경기도 광주시 초월읍 대쌍령리 253-15 주차장</addr><chargeTp>2</chargeTp><cpId>11873</cpId><cpNm>급속02</cpNm><cpStat>1</cpStat><cpTp>7</cpTp><csId>5286</csId><csNm>초월도서관</csNm><lat>37.38751867651467</lat><longi>127.29133265810978</longi><statUpdateDatetime>2023-06-15 16:05:39</statUpdateDatetime></item><item><addr>경상북도 포항시 동해면 일월로 18 한국공항공사 포항공항 주차장</addr><chargeTp>2</chargeTp><cpId>11225</cpId><cpNm>급속01</cpNm><cpStat>1</cpStat><cpTp>7</cpTp><csId>4874</csId><csNm>한국공항공사 포항공항</csNm><lat>35.98324549527216</lat><longi>129.43390637423562</longi><statUpdateDatetime>2023-06-15 16:06:51</statUpdateDatetime></item><item><addr>인천광역시 남동구 논현동 628-2 지상공영주차장</addr><chargeTp>2</chargeTp><cpId>11879</cpId><cpNm>급속01</cpNm><cpStat>1</cpStat><cpTp>7</cpTp><csId>5293</csId><csNm>논현택지 5공영주차장</csNm><lat>37.402517403194196</lat><longi>126.7236514528061</longi><statUpdateDatetime>2023-06-15 16:06:02</statUpdateDatetime></item><item><addr>인천광역시 남동구 구월동 1484 지하주차장 1층</addr><chargeTp>2</chargeTp><cpId>11880</cpId><cpNm>급속01</cpNm><cpStat>1</cpStat><cpTp>7</cpTp><csId>5294</csId><csNm>구월1동 행정복지센터</csNm><lat>37.44757992206784</lat><longi>126.71253508353243</longi><statUpdateDatetime>2023-06-15 16:06:08</statUpdateDatetime></item><item><addr>경상북도 경주시 용강동 1316-2 용강동행정복지센터 주차장</addr><chargeTp>2</chargeTp><cpId>11895</cpId><cpNm>급속01</cpNm><cpStat>1</cpStat><cpTp>7</cpTp><csId>4843</csId><csNm>용강동행정복지센터</csNm><lat>35.8642314788742</lat><longi>129.223148088949</longi><statUpdateDatetime>2023-06-15 16:05:34</statUpdateDatetime></item><item><addr>경상북도 봉화군 춘양면 서벽리 485 백두대간수목원 방문자센터 주차장</addr><chargeTp>2</chargeTp><cpId>11977</cpId><cpNm>급속01</cpNm><cpStat>1</cpStat><cpTp>7</cpTp><csId>5363</csId><csNm>백두대간수목원1</csNm><lat>37.008614035324086</lat><longi>128.83016929732957</longi><statUpdateDatetime>2023-06-15 16:05:39</statUpdateDatetime></item><item><addr>경상북도 봉화군 춘양면 서벽리 485 백두대간수목원 방문자센터 주차장</addr><chargeTp>2</chargeTp><cpId>11978</cpId><cpNm>급속01</cpNm><cpStat>1</cpStat><cpTp>7</cpTp><csId>5364</csId><csNm>백두대간수목원2</csNm><lat>37.00856220590285</lat><longi>128.83031690677183</longi><statUpdateDatetime>2023-06-15 16:05:45</statUpdateDatetime></item><item><addr>경상북도 봉화군 춘양면 서벽리 1396 백두대간수목원 전시원관리동</addr><chargeTp>2</chargeTp><cpId>11979</cpId><cpNm>급속01</cpNm><cpStat>1</cpStat><cpTp>7</cpTp><csId>5365</csId><csNm>백두대간수목원3</csNm><lat>37.00666482051656</lat><longi>128.80523386598443</longi><statUpdateDatetime>2023-06-15 16:04:53</statUpdateDatetime></item><item><addr>경상남도 산청군 단성면 방목리 산 66-1 기설 충전소 좌측 주차면</addr><chargeTp>2</chargeTp><cpId>12013</cpId><cpNm>급속01</cpNm><cpStat>4</cpStat><cpTp>7</cpTp><csId>5373</csId><csNm>(고속도로)산청휴게소 통영방향</csNm><lat>35.33297087403315</lat><longi>127.93728226193701</longi><statUpdateDatetime>2023-06-06 05:44:19</statUpdateDatetime></item><item><addr>경상남도 산청군 단성면 방목리 산 66-1 기설 충전소 좌측 주차면</addr><chargeTp>2</chargeTp><cpId>12015</cpId><cpNm>급속03</cpNm><cpStat>1</cpStat><cpTp>7</cpTp><csId>5373</csId><csNm>(고속도로)산청휴게소 통영방향</csNm><lat>35.33297087403315</lat><longi>127.93728226193701</longi><statUpdateDatetime>2023-06-15 16:05:52</statUpdateDatetime></item><item><addr>경상남도 산청군 단성면 방목리 산 66-1 기설 충전소 좌측 주차면</addr><chargeTp>2</chargeTp><cpId>12014</cpId><cpNm>급속02</cpNm><cpStat>3</cpStat><cpTp>7</cpTp><csId>5373</csId><csNm>(고속도로)산청휴게소 통영방향</csNm><lat>35.33297087403315</lat><longi>127.93728226193701</longi><statUpdateDatetime>2023-06-15 16:08:39</statUpdateDatetime></item><item><addr>인천광역시 강화군 교동면 대룡리 1111-7 실제위치:교동면 대룡리 1110-5</addr><chargeTp>2</chargeTp><cpId>12016</cpId><cpNm>급속01</cpNm><cpStat>1</cpStat><cpTp>7</cpTp><csId>5374</csId><csNm>대룡리 공영주차장</csNm><lat>37.78176487754281</lat><longi>126.27857809250318</longi><statUpdateDatetime>2023-06-15 16:06:33</statUpdateDatetime></item><item><addr>강원도 춘천시 효자동 303-14 지상 주차장</addr><chargeTp>2</chargeTp><cpId>12047</cpId><cpNm>급속01</cpNm><cpStat>1</cpStat><cpTp>7</cpTp><csId>5395</csId><csNm>춘천사회혁신파크</csNm><lat>37.86440101253512</lat><longi>127.735653562885</longi><statUpdateDatetime>2023-06-15 16:07:26</statUpdateDatetime></item><item><addr>경기도 남양주시 오남읍 양지로 176-9 (오남리) 입구 우회전 끝쪽</addr><chargeTp>2</chargeTp><cpId>12048</cpId><cpNm>급속01</cpNm><cpStat>1</cpStat><cpTp>7</cpTp><csId>5396</csId><csNm>오남 제1 공영주차장</csNm><lat>37.6935</lat><longi>127.200</longi><statUpdateDatetime>2023-06-15 16:05:36</statUpdateDatetime></item><item><addr>경기도 남양주시 진건읍 사능리 590-6 입구 우측</addr><chargeTp>2</chargeTp><cpId>12050</cpId><cpNm>급속01</cpNm><cpStat>2</cpStat><cpTp>7</cpTp><csId>5398</csId><csNm>진건 제4 공영주차장</csNm><lat>37.65047326434581</lat><longi>127.17905275744222</longi><statUpdateDatetime>2023-06-15 16:05:00</statUpdateDatetime></item><item><addr>경기도 남양주시 진접읍 팔야리 792 주차장 내부</addr><chargeTp>2</chargeTp><cpId>12049</cpId><cpNm>급속01</cpNm><cpStat>1</cpStat><cpTp>7</cpTp><csId>5397</csId><csNm>진접 제2 공영주차장</csNm><lat>37.74544</lat><longi>127.2023</longi><statUpdateDatetime>2023-06-15 16:05:33</statUpdateDatetime></item><item><addr>경기도 가평군 조종면 현리 413-20 관외주차장</addr><chargeTp>2</chargeTp><cpId>12061</cpId><cpNm>급속01</cpNm><cpStat>1</cpStat><cpTp>7</cpTp><csId>5401</csId><csNm>조종소방서</csNm><lat>37.816077</lat><longi>127.349637</longi><statUpdateDatetime>2023-06-15 16:05:44</statUpdateDatetime></item><item><addr>경기도 구리시 토평동 977 토평동979 공영주차장 내</addr><chargeTp>2</chargeTp><cpId>12071</cpId><cpNm>급속01</cpNm><cpStat>3</cpStat><cpTp>7</cpTp><csId>5412</csId><csNm>구리 제7공영주차장</csNm><lat>37.5896023915109</lat><longi>127.1483502551208</longi><statUpdateDatetime>2023-06-15 16:05:23</statUpdateDatetime></item><item><addr>전라남도 장흥군 장흥읍 건산리 208-11 (실외완전노출) 공용주차장 앞편</addr><chargeTp>2</chargeTp><cpId>12083</cpId><cpNm>급속01</cpNm><cpStat>1</cpStat><cpTp>7</cpTp><csId>5421</csId><csNm>한국수자원공사</csNm><lat>34.67640837122916</lat><longi>126.91103549801183</longi><statUpdateDatetime>2023-06-15 16:05:29</statUpdateDatetime></item><item><addr>경상북도 경주시 외동읍 석계리 970 휴게소바라보는 기준 건물 오른쪽</addr><chargeTp>2</chargeTp><cpId>12089</cpId><cpNm>급속01</cpNm><cpStat>1</cpStat><cpTp>7</cpTp><csId>5352</csId><csNm>(고속도로)외동휴게소 포항방면</csNm><lat>35.67271468476318</lat><longi>129.28847706467735</longi><statUpdateDatetime>2023-06-15 16:06:16</statUpdateDatetime></item><item><addr>경상북도 경주시 외동읍 석계리 970 휴게소바라보는 기준 건물 오른쪽</addr><chargeTp>2</chargeTp><cpId>12093</cpId><cpNm>급속05</cpNm><cpStat>1</cpStat><cpTp>7</cpTp><csId>5352</csId><csNm>(고속도로)외동휴게소 포항방면</csNm><lat>35.67271468476318</lat><longi>129.28847706467735</longi><statUpdateDatetime>2023-06-15 16:05:53</statUpdateDatetime></item><item><addr>경기도 이천시 호법면 주박리 546 실외주차장</addr><chargeTp>2</chargeTp><cpId>12094</cpId><cpNm>급속01</cpNm><cpStat>1</cpStat><cpTp>7</cpTp><csId>5424</csId><csNm>호법면 체육지원센터</csNm><lat>37.215494660672675</lat><longi>127.40743556227173</longi><statUpdateDatetime>2023-06-15 16:05:27</statUpdateDatetime></item><item><addr>경기도 의왕시 청계동 71-2 실외주차장</addr><chargeTp>2</chargeTp><cpId>12097</cpId><cpNm>급속01</cpNm><cpStat>1</cpStat><cpTp>7</cpTp><csId>5425</csId><csNm>청계산 공영주차장</csNm><lat>37.405822250945384</lat><longi>127.02537939719592</longi><statUpdateDatetime>2023-06-15 16:05:32</statUpdateDatetime></item><item><addr>경기도 의왕시 월암동 543-3 실외주차장</addr><chargeTp>2</chargeTp><cpId>12099</cpId><cpNm>급속02</cpNm><cpStat>2</cpStat><cpTp>7</cpTp><csId>5426</csId><csNm>자연학습공원 공영주차장</csNm><lat>37.3068377194956</lat><longi>126.953029756924</longi><statUpdateDatetime>2023-06-15 16:05:00</statUpdateDatetime></item><item><addr>경기도 안산시 상록구 일동 95 지하주차장</addr><chargeTp>2</chargeTp><cpId>12100</cpId><cpNm>급속01</cpNm><cpStat>1</cpStat><cpTp>7</cpTp><csId>5427</csId><csNm>근로복지공단 안산병원 주차장</csNm><lat>37.31701387978363</lat><longi>126.87439191686432</longi><statUpdateDatetime>2023-06-15 16:05:20</statUpdateDatetime></item><item><addr>경기도 안산시 상록구 일동 95 지하주차장</addr><chargeTp>2</chargeTp><cpId>12101</cpId><cpNm>급속02</cpNm><cpStat>1</cpStat><cpTp>7</cpTp><csId>5427</csId><csNm>근로복지공단 안산병원 주차장</csNm><lat>37.31701387978363</lat><longi>126.87439191686432</longi><statUpdateDatetime>2023-06-15 16:05:27</statUpdateDatetime></item><item><addr>경기도 용인시 처인구 고림동 81-2 실외주차장</addr><chargeTp>2</chargeTp><cpId>12110</cpId><cpNm>급속01</cpNm><cpStat>1</cpStat><cpTp>7</cpTp><csId>5429</csId><csNm>(고속도로)용인휴게소 인천방향</csNm><lat>37.24791662756099</lat><longi>127.23898548044559</longi><statUpdateDatetime>2023-06-15 16:00:25</statUpdateDatetime></item><item><addr>전라북도 임실군 오수면 대명리 783-16 전라북도 임실군 오수면 대명리 783</addr><chargeTp>2</chargeTp><cpId>12117</cpId><cpNm>급속01</cpNm><cpStat>1</cpStat><cpTp>7</cpTp><csId>5437</csId><csNm>(고속도로)오수휴게소 완주방향</csNm><lat>35.53909252164886</lat><longi>127.31091224538156</longi><statUpdateDatetime>2023-06-15 16:08:28</statUpdateDatetime></item><item><addr>경기도 용인시 처인구 고림동 81-2 실외주차장</addr><chargeTp>2</chargeTp><cpId>12111</cpId><cpNm>급속02</cpNm><cpStat>1</cpStat><cpTp>7</cpTp><csId>5429</csId><csNm>(고속도로)용인휴게소 인천방향</csNm><lat>37.24791662756099</lat><longi>127.23898548044559</longi><statUpdateDatetime>2023-06-15 16:01:24</statUpdateDatetime></item><item><addr>광주광역시 서구 동천동 611 동천동 주민센터</addr><chargeTp>2</chargeTp><cpId>12119</cpId><cpNm>급속01</cpNm><cpStat>4</cpStat><cpTp>7</cpTp><csId>5438</csId><csNm>동천동 주민센터</csNm><lat>35.1708898976901</lat><longi>126.864670246478</longi><statUpdateDatetime>2023-06-11 19:05:00</statUpdateDatetime></item><item><addr>경기도 구리시 토평동 86 쉼터 진입 후 왼편 주차장</addr><chargeTp>2</chargeTp><cpId>12103</cpId><cpNm>급속01</cpNm><cpStat>3</cpStat><cpTp>7</cpTp><csId>5434</csId><csNm>(고속도로)구리남양주 행복드림쉼터</csNm><lat>37.590263689325376</lat><longi>127.15605942449275</longi><statUpdateDatetime>2023-06-15 16:04:49</statUpdateDatetime></item><item><addr>강원도 삼척시 도계읍 도계로 225 (전두리, 대한석탄공사) 전두리 도계광업소 사무실 주차장</addr><chargeTp>2</chargeTp><cpId>12210</cpId><cpNm>급속02</cpNm><cpStat>1</cpStat><cpTp>7</cpTp><csId>5495</csId><csNm>대한석탄공사 도계광업소 급속 충전소</csNm><lat>37.1351</lat><longi>129.0238</longi><statUpdateDatetime>2023-06-15 16:05:59</statUpdateDatetime></item><item><addr>강원도 원주시 반곡동 1858-5 사옥 앞 지상주차장</addr><chargeTp>2</chargeTp><cpId>12211</cpId><cpNm>급속01</cpNm><cpStat>1</cpStat><cpTp>7</cpTp><csId>5466</csId><csNm>나라키움원주청사</csNm><lat>37.32653907220493</lat><longi>127.97871377300508</longi><statUpdateDatetime>2023-06-15 16:05:30</statUpdateDatetime></item><item><addr>강원도 원주시 지정면 간현리 1056-24 지상주차장</addr><chargeTp>2</chargeTp><cpId>12212</cpId><cpNm>급속01</cpNm><cpStat>1</cpStat><cpTp>7</cpTp><csId>5468</csId><csNm>간현관광지</csNm><lat>37.3633911</lat><longi>127.8359669</longi><statUpdateDatetime>2023-06-15 16:05:38</statUpdateDatetime></item><item><addr>강원도 원주시 지정면 간현리 1056-24 지상주차장</addr><chargeTp>2</chargeTp><cpId>12213</cpId><cpNm>급속02</cpNm><cpStat>1</cpStat><cpTp>7</cpTp><csId>5468</csId><csNm>간현관광지</csNm><lat>37.3633911</lat><longi>127.8359669</longi><statUpdateDatetime>2023-06-15 16:05:43</statUpdateDatetime></item><item><addr>강원도 태백시 황지동 59-192 주차장</addr><chargeTp>2</chargeTp><cpId>12216</cpId><cpNm>급속01</cpNm><cpStat>1</cpStat><cpTp>7</cpTp><csId>5498</csId><csNm>태백 하나로마트</csNm><lat>37.165716984313946</lat><longi>128.9861499272918</longi><statUpdateDatetime>2023-06-15 16:05:02</statUpdateDatetime></item><item><addr>강원도 태백시 동점동 산 2 강원소방학교</addr><chargeTp>2</chargeTp><cpId>12214</cpId><cpNm>급속01</cpNm><cpStat>1</cpStat><cpTp>7</cpTp><csId>5499</csId><csNm>동점동소방학교</csNm><lat>37.10397403003203</lat><longi>129.04070816577638</longi><statUpdateDatetime>2023-06-15 16:05:37</statUpdateDatetime></item><item><addr>강원도 정선군 고한읍 고한리 61-1 고한시장</addr><chargeTp>2</chargeTp><cpId>12215</cpId><cpNm>급속01</cpNm><cpStat>1</cpStat><cpTp>7</cpTp><csId>5500</csId><csNm>고한시장</csNm><lat>37.19952188360885</lat><longi>128.85530093001125</longi><statUpdateDatetime>2023-06-15 16:05:13</statUpdateDatetime></item><item><addr>강원도 강릉시 포남동 산 90-1 주차장</addr><chargeTp>2</chargeTp><cpId>12244</cpId><cpNm>급속01</cpNm><cpStat>1</cpStat><cpTp>7</cpTp><csId>5510</csId><csNm>강릉아이스아레나 주차장</csNm><lat>37.780142394417815</lat><longi>128.89654801357398</longi><statUpdateDatetime>2023-06-15 16:06:37</statUpdateDatetime></item><item><addr>강원도 강릉시 포남동 산 90-1 주차장</addr><chargeTp>2</chargeTp><cpId>12247</cpId><cpNm>급속04</cpNm><cpStat>1</cpStat><cpTp>7</cpTp><csId>5510</csId><csNm>강릉아이스아레나 주차장</csNm><lat>37.780142394417815</lat><longi>128.89654801357398</longi><statUpdateDatetime>2023-06-15 16:08:08</statUpdateDatetime></item><item><addr>강원도 춘천시 동면 지내리 209-15 동사무소 주차장</addr><chargeTp>2</chargeTp><cpId>12238</cpId><cpNm>급속02</cpNm><cpStat>1</cpStat><cpTp>7</cpTp><csId>5508</csId><csNm>동면행정복지센터</csNm><lat>37.91003759068713</lat><longi>127.78142479220176</longi><statUpdateDatetime>2023-06-15 16:05:26</statUpdateDatetime></item><item><addr>강원도 춘천시 신북읍 발산리 산 32-1 숲체원 밖 주차장</addr><chargeTp>2</chargeTp><cpId>12239</cpId><cpNm>급속01</cpNm><cpStat>1</cpStat><cpTp>7</cpTp><csId>5509</csId><csNm>국립춘천숲체원</csNm><lat>37.99173948093612</lat><longi>127.76774084344806</longi><statUpdateDatetime>2023-06-15 16:05:24</statUpdateDatetime></item><item><addr>강원도 고성군 토성면 인흥리 714-2 주차장</addr><chargeTp>2</chargeTp><cpId>12243</cpId><cpNm>급속02</cpNm><cpStat>1</cpStat><cpTp>7</cpTp><csId>5512</csId><csNm>잼버리수련장</csNm><lat>38.22268821348361</lat><longi>128.4975009496299</longi><statUpdateDatetime>2023-06-15 16:05:32</statUpdateDatetime></item><item><addr>강원도 춘천시 동면 지내리 209-15 동사무소 주차장</addr><chargeTp>2</chargeTp><cpId>12237</cpId><cpNm>급속01</cpNm><cpStat>1</cpStat><cpTp>7</cpTp><csId>5508</csId><csNm>동면행정복지센터</csNm><lat>37.91003759068713</lat><longi>127.78142479220176</longi><statUpdateDatetime>2023-06-15 16:05:50</statUpdateDatetime></item><item><addr>강원도 강릉시 포남동 산 90-1 주차장</addr><chargeTp>2</chargeTp><cpId>12245</cpId><cpNm>급속02</cpNm><cpStat>1</cpStat><cpTp>7</cpTp><csId>5510</csId><csNm>강릉아이스아레나 주차장</csNm><lat>37.780142394417815</lat><longi>128.89654801357398</longi><statUpdateDatetime>2023-06-15 16:06:56</statUpdateDatetime></item><item><addr>강원도 춘천시 신북읍 발산리 산 32-1 숲체원 밖 주차장</addr><chargeTp>2</chargeTp><cpId>12240</cpId><cpNm>급속02</cpNm><cpStat>1</cpStat><cpTp>7</cpTp><csId>5509</csId><csNm>국립춘천숲체원</csNm><lat>37.99173948093612</lat><longi>127.76774084344806</longi><statUpdateDatetime>2023-06-15 16:05:42</statUpdateDatetime></item><item><addr>강원도 고성군 토성면 인흥리 714-2 주차장</addr><chargeTp>2</chargeTp><cpId>12242</cpId><cpNm>급속01</cpNm><cpStat>1</cpStat><cpTp>7</cpTp><csId>5512</csId><csNm>잼버리수련장</csNm><lat>38.22268821348361</lat><longi>128.4975009496299</longi><statUpdateDatetime>2023-06-15 16:05:23</statUpdateDatetime></item><item><addr>강원도 인제군 인제읍 남북리 817 주차장</addr><chargeTp>2</chargeTp><cpId>12241</cpId><cpNm>급속01</cpNm><cpStat>1</cpStat><cpTp>7</cpTp><csId>5511</csId><csNm>인제체육관</csNm><lat>38.058793509629744</lat><longi>128.1647632528215</longi><statUpdateDatetime>2023-06-15 16:07:28</statUpdateDatetime></item><item><addr>강원도 강릉시 포남동 산 90-1 주차장</addr><chargeTp>2</chargeTp><cpId>12246</cpId><cpNm>급속03</cpNm><cpStat>1</cpStat><cpTp>7</cpTp><csId>5510</csId><csNm>강릉아이스아레나 주차장</csNm><lat>37.780142394417815</lat><longi>128.89654801357398</longi><statUpdateDatetime>2023-06-15 16:08:02</statUpdateDatetime></item><item><addr>인천광역시 서구 가좌동 481-2 3층 출입구 좌측</addr><chargeTp>2</chargeTp><cpId>12253</cpId><cpNm>급속01</cpNm><cpStat>1</cpStat><cpTp>7</cpTp><csId>5310</csId><csNm>축산물시장 공영주차장</csNm><lat>37.4782263751459</lat><longi>126.687443121133</longi><statUpdateDatetime>2023-06-15 16:06:51</statUpdateDatetime></item><item><addr>부산광역시 영도구 청학동 99-229 주차장</addr><chargeTp>2</chargeTp><cpId>12305</cpId><cpNm>급속01</cpNm><cpStat>1</cpStat><cpTp>7</cpTp><csId>5538</csId><csNm>청학2동 공영주차장</csNm><lat>35.08917288366601</lat><longi>129.06239856047264</longi><statUpdateDatetime>2023-06-15 16:05:52</statUpdateDatetime></item><item><addr>부산광역시 연제구 연산동 1062-1 주차장내</addr><chargeTp>2</chargeTp><cpId>12304</cpId><cpNm>급속01</cpNm><cpStat>1</cpStat><cpTp>7</cpTp><csId>5540</csId><csNm>과정공영주차장</csNm><lat>35.18703317531037</lat><longi>129.0988042950944</longi><statUpdateDatetime>2023-06-15 16:05:53</statUpdateDatetime></item><item><addr>부산광역시 영도구 청학동 99-229 주차장</addr><chargeTp>2</chargeTp><cpId>12306</cpId><cpNm>급속02</cpNm><cpStat>1</cpStat><cpTp>7</cpTp><csId>5538</csId><csNm>청학2동 공영주차장</csNm><lat>35.08917288366601</lat><longi>129.06239856047264</longi><statUpdateDatetime>2023-06-15 16:05:03</statUpdateDatetime></item><item><addr>인천광역시 계양구 임학동 69-23 보건소 앞</addr><chargeTp>2</chargeTp><cpId>12338</cpId><cpNm>급속01</cpNm><cpStat>1</cpStat><cpTp>7</cpTp><csId>5564</csId><csNm>계양2동 행정복지센터</csNm><lat>37.543765291003815</lat><longi>126.7371112659647</longi><statUpdateDatetime>2023-06-15 16:06:13</statUpdateDatetime></item><item><addr>인천광역시 부평구 부개동 468 부개역 공영주차장</addr><chargeTp>2</chargeTp><cpId>12339</cpId><cpNm>급속01</cpNm><cpStat>1</cpStat><cpTp>7</cpTp><csId>5565</csId><csNm>부개역공영주차장</csNm><lat>37.48903895513017</lat><longi>126.73935827076732</longi><statUpdateDatetime>2023-06-15 16:06:59</statUpdateDatetime></item><item><addr>부산광역시 해운대구 반여동 1575-5 노상주차장</addr><chargeTp>1</chargeTp><cpId>12412</cpId><cpNm>완속01</cpNm><cpStat>2</cpStat><cpTp>2</cpTp><csId>5624</csId><csNm>(전주거치형)신선천주거지2</csNm><lat>35.202558145775384</lat><longi>129.13446535046805</longi><statUpdateDatetime>2023-06-15 16:05:00</statUpdateDatetime></item><item><addr>경상북도 안동시 동부동 85-3 공영주차장 1층</addr><chargeTp>2</chargeTp><cpId>12440</cpId><cpNm>급속01</cpNm><cpStat>1</cpStat><cpTp>7</cpTp><csId>5627</csId><csNm>웅부공원 공영주차장</csNm><lat>36.565614</lat><longi>128.732862</longi><statUpdateDatetime>2023-06-15 16:00:01</statUpdateDatetime></item><item><addr>서울특별시 영등포구 신길동 426-3 스포츠센터주차장입구(지상위치)</addr><chargeTp>2</chargeTp><cpId>12447</cpId><cpNm>급속02</cpNm><cpStat>1</cpStat><cpTp>7</cpTp><csId>5639</csId><csNm>영등포 제1스포츠센터</csNm><lat>37.500314</lat><longi>126.906495</longi><statUpdateDatetime>2023-06-15 16:04:02</statUpdateDatetime></item><item><addr>경상북도 포항시 북구 흥해읍 옥성리 62-2 한국농어촌공사 포항울릉지사 주차장 내</addr><chargeTp>2</chargeTp><cpId>12459</cpId><cpNm>급속01</cpNm><cpStat>1</cpStat><cpTp>7</cpTp><csId>5645</csId><csNm>한국농어촌공사 포항울릉지사</csNm><lat>36.1102159</lat><longi>129.3456630</longi><statUpdateDatetime>2023-06-15 16:05:58</statUpdateDatetime></item><item><addr>전라남도 나주시 빛가람동 301 통신전파진흥원 주차장</addr><chargeTp>2</chargeTp><cpId>12460</cpId><cpNm>급속01</cpNm><cpStat>1</cpStat><cpTp>7</cpTp><csId>5646</csId><csNm>통신전파진흥원 전기차충전소</csNm><lat>35.01995538281936</lat><longi>126.79476216903949</longi><statUpdateDatetime>2023-06-15 16:00:37</statUpdateDatetime></item><item><addr>세종특별자치시 소담동 570 한전세종통합사옥 소담동568</addr><chargeTp>2</chargeTp><cpId>12498</cpId><cpNm>급속02</cpNm><cpStat>1</cpStat><cpTp>7</cpTp><csId>5638</csId><csNm>세종통합사옥 공용 전기차 충전소</csNm><lat>36.48451611882184</lat><longi>127.30584518684203</longi><statUpdateDatetime>2023-06-15 16:07:56</statUpdateDatetime></item><item><addr>세종특별자치시 소담동 570 한전세종통합사옥 소담동568</addr><chargeTp>2</chargeTp><cpId>12499</cpId><cpNm>급속03</cpNm><cpStat>1</cpStat><cpTp>7</cpTp><csId>5638</csId><csNm>세종통합사옥 공용 전기차 충전소</csNm><lat>36.48451611882184</lat><longi>127.30584518684203</longi><statUpdateDatetime>2023-06-15 16:08:03</statUpdateDatetime></item><item><addr>세종특별자치시 소담동 570 한전세종통합사옥 소담동568</addr><chargeTp>2</chargeTp><cpId>12497</cpId><cpNm>급속01</cpNm><cpStat>1</cpStat><cpTp>7</cpTp><csId>5638</csId><csNm>세종통합사옥 공용 전기차 충전소</csNm><lat>36.48451611882184</lat><longi>127.30584518684203</longi><statUpdateDatetime>2023-06-15 16:06:57</statUpdateDatetime></item><item><addr>강원도 원주시 호저면 마근거리길 110 (옥산리, 원주(춘천방향)휴게소) 지상주차장</addr><chargeTp>2</chargeTp><cpId>12248</cpId><cpNm>급속02</cpNm><cpStat>1</cpStat><cpTp>7</cpTp><csId>5507</csId><csNm>(고속도로)원주휴게소 춘천방향</csNm><lat>37.433970757612045</lat><longi>127.9316159949919</longi><statUpdateDatetime>2023-06-15 16:05:09</statUpdateDatetime></item><item><addr>강원도 원주시 호저면 마근거리길 110 (옥산리, 원주(춘천방향)휴게소) 지상주차장</addr><chargeTp>2</chargeTp><cpId>12249</cpId><cpNm>급속03</cpNm><cpStat>1</cpStat><cpTp>7</cpTp><csId>5507</csId><csNm>(고속도로)원주휴게소 춘천방향</csNm><lat>37.433970757612045</lat><longi>127.9316159949919</longi><statUpdateDatetime>2023-06-15 16:07:49</statUpdateDatetime></item><item><addr>충청북도 청주시 서원구 분평동 1426 지상주차장</addr><chargeTp>2</chargeTp><cpId>12319</cpId><cpNm>급속02</cpNm><cpStat>1</cpStat><cpTp>7</cpTp><csId>3387</csId><csNm>농어촌공사 충북지역본부</csNm><lat>36.607077</lat><longi>127.483664</longi><statUpdateDatetime>2023-06-15 16:06:38</statUpdateDatetime></item><item><addr>전라남도 광양시 진월면 신아리 1192-1 섬진강휴게소 부산방향 주차장 우측</addr><chargeTp>2</chargeTp><cpId>12336</cpId><cpNm>급속04</cpNm><cpStat>1</cpStat><cpTp>7</cpTp><csId>5456</csId><csNm>(고속도로)섬진강휴게소 부산방향</csNm><lat>34.984712491026</lat><longi>127.770362041432</longi><statUpdateDatetime>2023-06-15 16:06:48</statUpdateDatetime></item><item><addr>대전광역시 유성구 봉산동 294 주차장</addr><chargeTp>2</chargeTp><cpId>12383</cpId><cpNm>급속01</cpNm><cpStat>4</cpStat><cpTp>7</cpTp><csId>5546</csId><csNm>구즉동 행정복지센터</csNm><lat>36.440587253830024</lat><longi>127.38370222388745</longi><statUpdateDatetime>2023-06-12 23:27:21</statUpdateDatetime></item><item><addr>경상남도 통영시 평림동 471-3 평림생활체육공원 옥외 주차장</addr><chargeTp>2</chargeTp><cpId>12385</cpId><cpNm>급속01</cpNm><cpStat>3</cpStat><cpTp>7</cpTp><csId>5599</csId><csNm>평림생활체육공원</csNm><lat>34.85674077914559</lat><longi>128.39714904751952</longi><statUpdateDatetime>2023-06-07 12:19:29</statUpdateDatetime></item><item><addr>경상남도 통영시 용남면 장평리 125-24 거제대교 휴게소</addr><chargeTp>2</chargeTp><cpId>12387</cpId><cpNm>급속02</cpNm><cpStat>1</cpStat><cpTp>7</cpTp><csId>5600</csId><csNm>거제대교 휴게소</csNm><lat>34.890602715389555</lat><longi>128.47125679538422</longi><statUpdateDatetime>2023-06-15 16:05:44</statUpdateDatetime></item><item><addr>경상남도 통영시 용남면 장평리 125-24 거제대교 휴게소</addr><chargeTp>2</chargeTp><cpId>12386</cpId><cpNm>급속01</cpNm><cpStat>1</cpStat><cpTp>7</cpTp><csId>5600</csId><csNm>거제대교 휴게소</csNm><lat>34.890602715389555</lat><longi>128.47125679538422</longi><statUpdateDatetime>2023-06-15 16:05:38</statUpdateDatetime></item><item><addr>경상북도 영천시 고경면 청정리 700 국립영천호국원 입구 근처 주차장</addr><chargeTp>2</chargeTp><cpId>12396</cpId><cpNm>급속02</cpNm><cpStat>1</cpStat><cpTp>7</cpTp><csId>5609</csId><csNm>국립영천호국원</csNm><lat>35.97862122</lat><longi>129.10940639</longi><statUpdateDatetime>2023-06-15 16:05:59</statUpdateDatetime></item></items><numOfRows>100</numOfRows><pageNo>33</pageNo><totalCount>3399</totalCount></body></response>
Response code: 200
<?xml version="1.0" encoding="UTF-8" standalone="yes"?><response><header><resultCode>00</resultCode><resultMsg>NORMAL SERVICE.</resultMsg></header><body><items><item><addr>경상북도 영천시 고경면 청정리 700 국립영천호국원 입구 근처 주차장</addr><chargeTp>2</chargeTp><cpId>12395</cpId><cpNm>급속01</cpNm><cpStat>1</cpStat><cpTp>7</cpTp><csId>5609</csId><csNm>국립영천호국원</csNm><lat>35.97862122</lat><longi>129.10940639</longi><statUpdateDatetime>2023-06-15 16:05:55</statUpdateDatetime></item><item><addr>경상북도 영천시 대창면 대창리 1028 대창면문화센터 입구 근처 주차장</addr><chargeTp>2</chargeTp><cpId>12397</cpId><cpNm>급속01</cpNm><cpStat>1</cpStat><cpTp>10</cpTp><csId>5610</csId><csNm>대창면문화센터</csNm><lat>35.87528566</lat><longi>128.89364139</longi><statUpdateDatetime>2023-06-15 16:06:03</statUpdateDatetime></item><item><addr>인천광역시 중구 항동7가 58-70 연안동 행정복지센터 주차장</addr><chargeTp>2</chargeTp><cpId>12419</cpId><cpNm>급속01</cpNm><cpStat>2</cpStat><cpTp>7</cpTp><csId>5623</csId><csNm>연안동 행정복지센터</csNm><lat>37.45317598308719</lat><longi>126.60445380373768</longi><statUpdateDatetime>2023-06-15 16:00:00</statUpdateDatetime></item><item><addr>경기도 부천시 도당동 185-148 고객주차장</addr><chargeTp>2</chargeTp><cpId>378</cpId><cpNm>급속01</cpNm><cpStat>1</cpStat><cpTp>10</cpTp><csId>5648</csId><csNm>부천지사</csNm><lat>37.507352</lat><longi>126.786477</longi><statUpdateDatetime>2023-06-15 16:05:00</statUpdateDatetime></item><item><addr>경기도 부천시 도당동 185-148 고객주차장</addr><chargeTp>2</chargeTp><cpId>7762</cpId><cpNm>급속02</cpNm><cpStat>1</cpStat><cpTp>10</cpTp><csId>5648</csId><csNm>부천지사</csNm><lat>37.507352</lat><longi>126.786477</longi><statUpdateDatetime>2023-06-15 16:05:22</statUpdateDatetime></item><item><addr>대구광역시 동구 효목동 626 사옥 앞편 주차장</addr><chargeTp>1</chargeTp><cpId>12466</cpId><cpNm>완속02</cpNm><cpStat>1</cpStat><cpTp>2</cpTp><csId>5644</csId><csNm>동대구지사</csNm><lat>35.874518751879556</lat><longi>128.64073646416347</longi><statUpdateDatetime>2023-06-15 16:08:01</statUpdateDatetime></item><item><addr>대구광역시 동구 효목동 626 사옥 앞편 주차장</addr><chargeTp>1</chargeTp><cpId>12465</cpId><cpNm>완속01</cpNm><cpStat>2</cpStat><cpTp>2</cpTp><csId>5644</csId><csNm>동대구지사</csNm><lat>35.874518751879556</lat><longi>128.64073646416347</longi><statUpdateDatetime>2023-06-15 16:05:00</statUpdateDatetime></item><item><addr>강원도 강릉시 사천면 방동리 807-1 강원지방기상청</addr><chargeTp>2</chargeTp><cpId>12201</cpId><cpNm>급속02</cpNm><cpStat>1</cpStat><cpTp>7</cpTp><csId>5492</csId><csNm>강원지방기상청</csNm><lat>37.804075714693894</lat><longi>128.85395664916308</longi><statUpdateDatetime>2023-06-15 16:05:36</statUpdateDatetime></item><item><addr>강원도 강릉시 구정면 제비리 888 구정휴게소(동해방향)</addr><chargeTp>2</chargeTp><cpId>12203</cpId><cpNm>급속01</cpNm><cpStat>1</cpStat><cpTp>7</cpTp><csId>5493</csId><csNm>(고속도로)구정휴게소 동해방향</csNm><lat>37.72263751062491</lat><longi>128.85162657076708</longi><statUpdateDatetime>2023-06-15 16:06:15</statUpdateDatetime></item><item><addr>경상북도 영양군 영양읍 감천리 1 주차장</addr><chargeTp>2</chargeTp><cpId>12198</cpId><cpNm>급속01</cpNm><cpStat>1</cpStat><cpTp>7</cpTp><csId>5465</csId><csNm>영양군 골프연습장 충전소</csNm><lat>36.6458325890778</lat><longi>129.10182141049341</longi><statUpdateDatetime>2023-06-15 16:05:38</statUpdateDatetime></item><item><addr>강원도 강릉시 구정면 제비리 888 구정휴게소(동해방향)</addr><chargeTp>2</chargeTp><cpId>12205</cpId><cpNm>급속03</cpNm><cpStat>2</cpStat><cpTp>7</cpTp><csId>5493</csId><csNm>(고속도로)구정휴게소 동해방향</csNm><lat>37.72263751062491</lat><longi>128.85162657076708</longi><statUpdateDatetime>2023-06-15 16:03:17</statUpdateDatetime></item><item><addr>강원도 삼척시 원덕읍 삼척로 734 (호산리) 한국남부발전 한마음 스포츠센터</addr><chargeTp>2</chargeTp><cpId>12209</cpId><cpNm>급속01</cpNm><cpStat>1</cpStat><cpTp>7</cpTp><csId>5496</csId><csNm>한국남부발전 복지관 급속 충전소</csNm><lat>37.1037</lat><longi>129.2023</longi><statUpdateDatetime>2023-06-15 16:06:36</statUpdateDatetime></item><item><addr>강원도 횡성군 안흥면 안흥리 1063 찐빵마을 주차장</addr><chargeTp>2</chargeTp><cpId>12227</cpId><cpNm>급속01</cpNm><cpStat>1</cpStat><cpTp>7</cpTp><csId>5504</csId><csNm>안흥찐빵모락모락마을</csNm><lat>37.410166</lat><longi>128.155950</longi><statUpdateDatetime>2023-06-15 16:00:57</statUpdateDatetime></item><item><addr>경기도 양주시 남면 상수리 667-10 검준일반산업단지 주차장</addr><chargeTp>2</chargeTp><cpId>12312</cpId><cpNm>급속02</cpNm><cpStat>1</cpStat><cpTp>7</cpTp><csId>5431</csId><csNm>검준일반산업단지</csNm><lat>37.8864719</lat><longi>126.995745</longi><statUpdateDatetime>2023-06-15 16:05:51</statUpdateDatetime></item><item><addr>충청북도 청주시 흥덕구 송절동 838 고객주차장 입구</addr><chargeTp>2</chargeTp><cpId>12343</cpId><cpNm>급속01</cpNm><cpStat>1</cpStat><cpTp>7</cpTp><csId>5566</csId><csNm>강서2동 행정복지센터</csNm><lat>36.66609575163462</lat><longi>127.45372103309655</longi><statUpdateDatetime>2023-06-15 16:08:04</statUpdateDatetime></item><item><addr>부산광역시 금정구 구서동 1032-6 노상주차장</addr><chargeTp>1</chargeTp><cpId>12399</cpId><cpNm>완속01</cpNm><cpStat>4</cpStat><cpTp>2</cpTp><csId>5612</csId><csNm>(전주거치형)구서동1</csNm><lat>35.25511133450156</lat><longi>129.0848044503765</longi><statUpdateDatetime>2023-06-09 19:40:59</statUpdateDatetime></item><item><addr>부산광역시 금정구 구서동 1026-7 노상주차장</addr><chargeTp>1</chargeTp><cpId>12400</cpId><cpNm>완속01</cpNm><cpStat>4</cpStat><cpTp>2</cpTp><csId>5614</csId><csNm>(전주거치형)구서동2</csNm><lat>35.25672545118575</lat><longi>129.0845464236318</longi><statUpdateDatetime>2023-06-07 20:34:00</statUpdateDatetime></item><item><addr>부산광역시 해운대구 우동 1102-223 노상주차장</addr><chargeTp>1</chargeTp><cpId>12401</cpId><cpNm>완속01</cpNm><cpStat>4</cpStat><cpTp>2</cpTp><csId>5615</csId><csNm>(전주거치형)장산로주거지2</csNm><lat>35.171392032690235</lat><longi>129.14123091541114</longi><statUpdateDatetime>2023-06-14 10:47:24</statUpdateDatetime></item><item><addr>서울특별시 도봉구 도봉동 626-20 민원인 주차장 후문</addr><chargeTp>2</chargeTp><cpId>12418</cpId><cpNm>급속04</cpNm><cpStat>1</cpStat><cpTp>7</cpTp><csId>5625</csId><csNm>서울북부지검</csNm><lat>37.675807183286444</lat><longi>127.04649009657349</longi><statUpdateDatetime>2023-06-15 16:06:08</statUpdateDatetime></item><item><addr>서울특별시 도봉구 도봉동 626-20 민원인 주차장 후문</addr><chargeTp>2</chargeTp><cpId>12415</cpId><cpNm>급속01</cpNm><cpStat>3</cpStat><cpTp>7</cpTp><csId>5625</csId><csNm>서울북부지검</csNm><lat>37.675807183286444</lat><longi>127.04649009657349</longi><statUpdateDatetime>2023-06-15 16:06:49</statUpdateDatetime></item><item><addr>서울특별시 도봉구 도봉동 626-20 민원인 주차장 후문</addr><chargeTp>2</chargeTp><cpId>12417</cpId><cpNm>급속03</cpNm><cpStat>1</cpStat><cpTp>7</cpTp><csId>5625</csId><csNm>서울북부지검</csNm><lat>37.675807183286444</lat><longi>127.04649009657349</longi><statUpdateDatetime>2023-06-15 16:06:12</statUpdateDatetime></item><item><addr>서울특별시 도봉구 도봉동 626-20 민원인 주차장 후문</addr><chargeTp>2</chargeTp><cpId>12416</cpId><cpNm>급속02</cpNm><cpStat>1</cpStat><cpTp>7</cpTp><csId>5625</csId><csNm>서울북부지검</csNm><lat>37.675807183286444</lat><longi>127.04649009657349</longi><statUpdateDatetime>2023-06-15 16:06:20</statUpdateDatetime></item><item><addr>대전광역시 유성구 상대동 488 박물관 옥외 주차장</addr><chargeTp>2</chargeTp><cpId>12423</cpId><cpNm>급속02</cpNm><cpStat>2</cpStat><cpTp>7</cpTp><csId>445</csId><csNm>대전시립박물관</csNm><lat>36.336701</lat><longi>127.335319</longi><statUpdateDatetime>2023-06-15 16:00:00</statUpdateDatetime></item><item><addr>인천광역시 연수구 송도동 300-3 1층 지상주차장 24번 기둥</addr><chargeTp>2</chargeTp><cpId>12448</cpId><cpNm>급속01</cpNm><cpStat>1</cpStat><cpTp>7</cpTp><csId>5635</csId><csNm>국제여객터미널</csNm><lat>37.4236458</lat><longi>126.6052785</longi><statUpdateDatetime>2023-06-15 16:01:47</statUpdateDatetime></item><item><addr>강원도 정선군 정선읍 봉양리 80-5 주차장</addr><chargeTp>2</chargeTp><cpId>12450</cpId><cpNm>급속01</cpNm><cpStat>3</cpStat><cpTp>7</cpTp><csId>5642</csId><csNm>정선군보건소</csNm><lat>37.37975633625133</lat><longi>128.67102711231425</longi><statUpdateDatetime>2023-06-15 16:01:13</statUpdateDatetime></item><item><addr>인천광역시 계양구 장기동 130 주민센터 주차장</addr><chargeTp>2</chargeTp><cpId>12323</cpId><cpNm>급속01</cpNm><cpStat>3</cpStat><cpTp>7</cpTp><csId>5550</csId><csNm>계양1동행정복지센터</csNm><lat>37.57654994873408</lat><longi>126.73397064844451</longi><statUpdateDatetime>2023-06-15 16:08:17</statUpdateDatetime></item><item><addr>제주특별자치도 서귀포시 상예동 2676 동쪽 주차장</addr><chargeTp>2</chargeTp><cpId>12378</cpId><cpNm>급속03</cpNm><cpStat>2</cpStat><cpTp>7</cpTp><csId>5585</csId><csNm>에코라운지</csNm><lat>33.26491166941601</lat><longi>126.38860663661911</longi><statUpdateDatetime>2023-06-15 16:05:10</statUpdateDatetime></item><item><addr>제주특별자치도 서귀포시 상예동 2676 동쪽 주차장</addr><chargeTp>2</chargeTp><cpId>12377</cpId><cpNm>급속02</cpNm><cpStat>2</cpStat><cpTp>7</cpTp><csId>5585</csId><csNm>에코라운지</csNm><lat>33.26491166941601</lat><longi>126.38860663661911</longi><statUpdateDatetime>2023-06-15 16:08:38</statUpdateDatetime></item><item><addr>제주특별자치도 서귀포시 상예동 2676 동쪽 주차장</addr><chargeTp>2</chargeTp><cpId>12375</cpId><cpNm>급속01</cpNm><cpStat>2</cpStat><cpTp>7</cpTp><csId>5585</csId><csNm>에코라운지</csNm><lat>33.26491166941601</lat><longi>126.38860663661911</longi><statUpdateDatetime>2023-06-15 16:06:00</statUpdateDatetime></item><item><addr>전라북도 임실군 강진면 백련리 551 국립임실호국원 주차장</addr><chargeTp>2</chargeTp><cpId>12393</cpId><cpNm>급속02</cpNm><cpStat>1</cpStat><cpTp>7</cpTp><csId>5601</csId><csNm>국립임실호국원</csNm><lat>35.551192699098166</lat><longi>127.18761888589684</longi><statUpdateDatetime>2023-06-15 16:07:34</statUpdateDatetime></item><item><addr>경상북도 경산시 압량읍 당리리 471-1 입구</addr><chargeTp>2</chargeTp><cpId>12394</cpId><cpNm>급속01</cpNm><cpStat>1</cpStat><cpTp>7</cpTp><csId>5604</csId><csNm>당리 다목적광장 EVC</csNm><lat>35.8170000917399</lat><longi>128.79449556953997</longi><statUpdateDatetime>2023-06-15 16:07:56</statUpdateDatetime></item><item><addr>부산광역시 금정구 남산동 91-10 노상주차장</addr><chargeTp>1</chargeTp><cpId>12398</cpId><cpNm>완속01</cpNm><cpStat>4</cpStat><cpTp>2</cpTp><csId>5611</csId><csNm>(전주거치형)남산동</csNm><lat>35.26733971346166</lat><longi>129.09224883559415</longi><statUpdateDatetime>2023-06-15 16:06:00</statUpdateDatetime></item><item><addr>부산광역시 부산진구 전포동 190 노상주차장</addr><chargeTp>1</chargeTp><cpId>12406</cpId><cpNm>완속01</cpNm><cpStat>1</cpStat><cpTp>2</cpTp><csId>5619</csId><csNm>(전주거치형)전포동주거지</csNm><lat>35.1592446115555</lat><longi>129.07009742006508</longi><statUpdateDatetime>2023-06-15 16:05:58</statUpdateDatetime></item><item><addr>부산광역시 해운대구 반여동 산 130-11 노상주차장</addr><chargeTp>1</chargeTp><cpId>12404</cpId><cpNm>완속01</cpNm><cpStat>4</cpStat><cpTp>2</cpTp><csId>5617</csId><csNm>(전주거치형)신선천주거지1</csNm><lat>35.20289539553814</lat><longi>129.13527015025562</longi><statUpdateDatetime>2023-06-06 12:31:51</statUpdateDatetime></item><item><addr>부산광역시 부산진구 범천동 1090-12 노상주차장</addr><chargeTp>1</chargeTp><cpId>12409</cpId><cpNm>완속01</cpNm><cpStat>1</cpStat><cpTp>2</cpTp><csId>5622</csId><csNm>(전주거치형)범천동신암로2</csNm><lat>35.15439746911869</lat><longi>129.04843542838384</longi><statUpdateDatetime>2023-06-15 16:05:11</statUpdateDatetime></item><item><addr>부산광역시 부산진구 범천동 1090-12 노상주차장</addr><chargeTp>1</chargeTp><cpId>12408</cpId><cpNm>완속01</cpNm><cpStat>4</cpStat><cpTp>2</cpTp><csId>5621</csId><csNm>(전주거치형)범천동신암로1</csNm><lat>35.15484232481926</lat><longi>129.04797475933</longi><statUpdateDatetime>2023-06-15 04:37:52</statUpdateDatetime></item><item><addr>부산광역시 부산진구 범전동 68-21 노상주차장</addr><chargeTp>1</chargeTp><cpId>12405</cpId><cpNm>완속01</cpNm><cpStat>1</cpStat><cpTp>2</cpTp><csId>5618</csId><csNm>(전주거치형)시민공원옆주거지</csNm><lat>35.1694438733983</lat><longi>129.0621524938099</longi><statUpdateDatetime>2023-06-15 16:03:57</statUpdateDatetime></item><item><addr>전라북도 익산시 팔봉동 850 지사 건물 옆 주차장</addr><chargeTp>2</chargeTp><cpId>497</cpId><cpNm>급속01</cpNm><cpStat>1</cpStat><cpTp>10</cpTp><csId>5691</csId><csNm>익산지사 02</csNm><lat>35.96160585915076</lat><longi>127.0047861942036</longi><statUpdateDatetime>2023-06-15 16:07:34</statUpdateDatetime></item><item><addr>강원도 태백시 황지동 244-52 주차장</addr><chargeTp>2</chargeTp><cpId>12217</cpId><cpNm>급속01</cpNm><cpStat>1</cpStat><cpTp>7</cpTp><csId>5502</csId><csNm>태백국민체육센터</csNm><lat>37.1626942340464</lat><longi>128.985355554886</longi><statUpdateDatetime>2023-06-15 16:05:31</statUpdateDatetime></item><item><addr>강원도 춘천시 동내면 사암리 산 121-1 부산방향 주차장</addr><chargeTp>2</chargeTp><cpId>12221</cpId><cpNm>급속04</cpNm><cpStat>1</cpStat><cpTp>7</cpTp><csId>5485</csId><csNm>(고속도로)춘천휴게소 부산방향</csNm><lat>37.81263676242214</lat><longi>127.76653960809253</longi><statUpdateDatetime>2023-06-15 16:07:17</statUpdateDatetime></item><item><addr>강원도 춘천시 동내면 사암리 산 121-1 부산방향 주차장</addr><chargeTp>2</chargeTp><cpId>12218</cpId><cpNm>급속01</cpNm><cpStat>1</cpStat><cpTp>7</cpTp><csId>5485</csId><csNm>(고속도로)춘천휴게소 부산방향</csNm><lat>37.81263676242214</lat><longi>127.76653960809253</longi><statUpdateDatetime>2023-06-15 16:06:44</statUpdateDatetime></item><item><addr>강원도 춘천시 동내면 사암리 산 121-1 부산방향 주차장</addr><chargeTp>2</chargeTp><cpId>12219</cpId><cpNm>급속02</cpNm><cpStat>2</cpStat><cpTp>7</cpTp><csId>5485</csId><csNm>(고속도로)춘천휴게소 부산방향</csNm><lat>37.81263676242214</lat><longi>127.76653960809253</longi><statUpdateDatetime>2023-06-15 16:08:23</statUpdateDatetime></item><item><addr>강원도 춘천시 동내면 사암리 산 121-1 부산방향 주차장</addr><chargeTp>2</chargeTp><cpId>12220</cpId><cpNm>급속03</cpNm><cpStat>1</cpStat><cpTp>7</cpTp><csId>5485</csId><csNm>(고속도로)춘천휴게소 부산방향</csNm><lat>37.81263676242214</lat><longi>127.76653960809253</longi><statUpdateDatetime>2023-06-15 16:07:31</statUpdateDatetime></item><item><addr>대구광역시 달서구 갈산동 971-5 후문</addr><chargeTp>2</chargeTp><cpId>12314</cpId><cpNm>급속01</cpNm><cpStat>1</cpStat><cpTp>7</cpTp><csId>5545</csId><csNm>한국산업인력공단</csNm><lat>35.836122</lat><longi>128.506474</longi><statUpdateDatetime>2023-06-15 16:05:56</statUpdateDatetime></item><item><addr>서울특별시 노원구 공릉동 172 국제관,테크노큐브,프론티어관</addr><chargeTp>2</chargeTp><cpId>12346</cpId><cpNm>급속04</cpNm><cpStat>1</cpStat><cpTp>7</cpTp><csId>3816</csId><csNm>서울과학기술대학교</csNm><lat>37.63300771189051</lat><longi>127.07754193602831</longi><statUpdateDatetime>2023-06-15 16:05:57</statUpdateDatetime></item><item><addr>경기도 용인시 처인구 남사읍 완장리 952-4 지하주차장2층</addr><chargeTp>2</chargeTp><cpId>12411</cpId><cpNm>급속02</cpNm><cpStat>1</cpStat><cpTp>7</cpTp><csId>5597</csId><csNm>남사스포츠센터</csNm><lat>37.157378</lat><longi>127.173768</longi><statUpdateDatetime>2023-06-15 16:05:25</statUpdateDatetime></item><item><addr>경기도 용인시 처인구 남사읍 완장리 952-4 지하주차장2층</addr><chargeTp>2</chargeTp><cpId>12410</cpId><cpNm>급속01</cpNm><cpStat>1</cpStat><cpTp>7</cpTp><csId>5597</csId><csNm>남사스포츠센터</csNm><lat>37.157378</lat><longi>127.173768</longi><statUpdateDatetime>2023-06-15 16:05:10</statUpdateDatetime></item><item><addr>경상북도 포항시 북구 용흥동 101-4 주차장</addr><chargeTp>2</chargeTp><cpId>12413</cpId><cpNm>급속01</cpNm><cpStat>1</cpStat><cpTp>7</cpTp><csId>5603</csId><csNm>동북지방통계청 포항사무소</csNm><lat>36.03482004021974</lat><longi>129.35669816799537</longi><statUpdateDatetime>2023-06-15 16:05:25</statUpdateDatetime></item><item><addr>경상북도 포항시 북구 용흥동 101-4 주차장</addr><chargeTp>2</chargeTp><cpId>12414</cpId><cpNm>급속02</cpNm><cpStat>1</cpStat><cpTp>7</cpTp><csId>5603</csId><csNm>동북지방통계청 포항사무소</csNm><lat>36.03482004021974</lat><longi>129.35669816799537</longi><statUpdateDatetime>2023-06-15 16:05:53</statUpdateDatetime></item><item><addr>강원도 동해시 이로동 183-2 삼화동 행정복지센터</addr><chargeTp>2</chargeTp><cpId>12444</cpId><cpNm>급속01</cpNm><cpStat>1</cpStat><cpTp>7</cpTp><csId>5636</csId><csNm>삼화동 행정복지센터 전기차 충전소</csNm><lat>33</lat><longi>124</longi><statUpdateDatetime>2023-06-15 16:07:03</statUpdateDatetime></item><item><addr>강원도 속초시 노학동 573-4 속초연수원 주차장 내</addr><chargeTp>2</chargeTp><cpId>12520</cpId><cpNm>급속02</cpNm><cpStat>1</cpStat><cpTp>7</cpTp><csId>4300</csId><csNm>속초연수원</csNm><lat>38.19001262988523</lat><longi>128.5518064204755</longi><statUpdateDatetime>2023-06-15 16:05:54</statUpdateDatetime></item><item><addr>강원도 횡성군 강림면 강림리 803-2 주차장</addr><chargeTp>2</chargeTp><cpId>12226</cpId><cpNm>급속01</cpNm><cpStat>1</cpStat><cpTp>7</cpTp><csId>5503</csId><csNm>강림 건강복지센터</csNm><lat>37.360728525398</lat><longi>128.128886769859</longi><statUpdateDatetime>2023-06-15 16:05:55</statUpdateDatetime></item><item><addr>전라남도 순천시 대대동 162-2 순천만습지 주차장 출구방향</addr><chargeTp>2</chargeTp><cpId>12254</cpId><cpNm>급속01</cpNm><cpStat>1</cpStat><cpTp>7</cpTp><csId>5315</csId><csNm>순천만습지주차장</csNm><lat>34.88705139917769</lat><longi>127.50871940154806</longi><statUpdateDatetime>2023-06-15 16:06:07</statUpdateDatetime></item><item><addr>전라남도 순천시 대대동 162-2 순천만습지 주차장 출구방향</addr><chargeTp>2</chargeTp><cpId>12255</cpId><cpNm>급속02</cpNm><cpStat>1</cpStat><cpTp>7</cpTp><csId>5315</csId><csNm>순천만습지주차장</csNm><lat>34.88705139917769</lat><longi>127.50871940154806</longi><statUpdateDatetime>2023-06-15 16:07:12</statUpdateDatetime></item><item><addr>인천광역시 중구 운북동 465-37 영종역 2번출구 공영주차장</addr><chargeTp>2</chargeTp><cpId>12273</cpId><cpNm>급속01</cpNm><cpStat>1</cpStat><cpTp>7</cpTp><csId>5423</csId><csNm>영종역 공영주차장</csNm><lat>37.510981</lat><longi>126.524317</longi><statUpdateDatetime>2023-06-15 16:01:09</statUpdateDatetime></item><item><addr>인천광역시 부평구 청천동 113 청천천공영주차장</addr><chargeTp>2</chargeTp><cpId>12342</cpId><cpNm>급속03</cpNm><cpStat>1</cpStat><cpTp>7</cpTp><csId>5162</csId><csNm>청천천공영주차장</csNm><lat>37.51672924803251</lat><longi>126.71506679706414</longi><statUpdateDatetime>2023-06-15 16:08:25</statUpdateDatetime></item><item><addr>부산광역시 강서구 낙동북로 477 주차장입구옆</addr><chargeTp>2</chargeTp><cpId>12380</cpId><cpNm>급속04</cpNm><cpStat>2</cpStat><cpTp>7</cpTp><csId>3808</csId><csNm>강서구청 주차장</csNm><lat>35.212533</lat><longi>128.980755</longi><statUpdateDatetime>2023-06-05 17:45:00</statUpdateDatetime></item><item><addr>부산광역시 강서구 낙동북로 477 주차장입구옆</addr><chargeTp>2</chargeTp><cpId>12379</cpId><cpNm>급속03</cpNm><cpStat>2</cpStat><cpTp>7</cpTp><csId>3808</csId><csNm>강서구청 주차장</csNm><lat>35.212533</lat><longi>128.980755</longi><statUpdateDatetime>2023-06-15 16:07:35</statUpdateDatetime></item><item><addr>충청북도 충주시 목행동 426-4 지상 주차장 입구 좌측</addr><chargeTp>2</chargeTp><cpId>12382</cpId><cpNm>급속01</cpNm><cpStat>1</cpStat><cpTp>7</cpTp><csId>5596</csId><csNm>충주시 농수산물도매시장</csNm><lat>37.005587807670714</lat><longi>127.92400834338554</longi><statUpdateDatetime>2023-06-15 16:00:09</statUpdateDatetime></item><item><addr>경기도 남양주시 별내동 2190-2 정문 왼편</addr><chargeTp>2</chargeTp><cpId>12424</cpId><cpNm>급속02</cpNm><cpStat>2</cpStat><cpTp>7</cpTp><csId>5602</csId><csNm>수도권119특수구조대</csNm><lat>37.671133296452055</lat><longi>127.11077010995647</longi><statUpdateDatetime>2023-06-15 16:05:00</statUpdateDatetime></item><item><addr>경기도 구리시 교문동 390-1 구리시청 2주차장</addr><chargeTp>2</chargeTp><cpId>12426</cpId><cpNm>급속02</cpNm><cpStat>1</cpStat><cpTp>7</cpTp><csId>5568</csId><csNm>구리시청</csNm><lat>37.594727253586605</lat><longi>127.13080652389698</longi><statUpdateDatetime>2023-06-15 16:05:50</statUpdateDatetime></item><item><addr>경기도 구리시 교문동 390-1 구리시청 2주차장</addr><chargeTp>2</chargeTp><cpId>12425</cpId><cpNm>급속01</cpNm><cpStat>1</cpStat><cpTp>7</cpTp><csId>5568</csId><csNm>구리시청</csNm><lat>37.594727253586605</lat><longi>127.13080652389698</longi><statUpdateDatetime>2023-06-15 16:00:55</statUpdateDatetime></item><item><addr>경기도 구리시 교문동 736-3 주차장 1층</addr><chargeTp>2</chargeTp><cpId>12427</cpId><cpNm>급속01</cpNm><cpStat>1</cpStat><cpTp>7</cpTp><csId>5569</csId><csNm>교문동주차빌딩</csNm><lat>37.596899917375055</lat><longi>127.13566249116782</longi><statUpdateDatetime>2023-06-15 16:00:52</statUpdateDatetime></item><item><addr>경기도 구리시 교문동 736-3 주차장 1층</addr><chargeTp>2</chargeTp><cpId>12428</cpId><cpNm>급속02</cpNm><cpStat>1</cpStat><cpTp>7</cpTp><csId>5569</csId><csNm>교문동주차빌딩</csNm><lat>37.596899917375055</lat><longi>127.13566249116782</longi><statUpdateDatetime>2023-06-15 16:00:39</statUpdateDatetime></item><item><addr>전라남도 광양시 중동 308-124 중앙하수처리장 정문 쪽 주차장</addr><chargeTp>2</chargeTp><cpId>12429</cpId><cpNm>급속01</cpNm><cpStat>1</cpStat><cpTp>7</cpTp><csId>5608</csId><csNm>중앙하수처리장</csNm><lat>34.929358420884554</lat><longi>127.6891769382542</longi><statUpdateDatetime>2023-06-15 16:05:33</statUpdateDatetime></item><item><addr>강원도 춘천시 효자동 192-1 자연과학대학 주차장</addr><chargeTp>2</chargeTp><cpId>12430</cpId><cpNm>급속01</cpNm><cpStat>1</cpStat><cpTp>7</cpTp><csId>5628</csId><csNm>강원대학교</csNm><lat>37.87256836768867</lat><longi>127.74169026328086</longi><statUpdateDatetime>2023-06-15 16:00:57</statUpdateDatetime></item><item><addr>인천광역시 강화군 불은면 삼성리 1027-42 진입로 초입 주차장</addr><chargeTp>2</chargeTp><cpId>12443</cpId><cpNm>급속01</cpNm><cpStat>1</cpStat><cpTp>7</cpTp><csId>5634</csId><csNm>농업기술센터</csNm><lat>37.703319</lat><longi>126.434468</longi><statUpdateDatetime>2023-06-15 16:05:54</statUpdateDatetime></item><item><addr>전라남도 나주시 빛가람동 301 통신전파진흥원 주차장</addr><chargeTp>2</chargeTp><cpId>12463</cpId><cpNm>급속03</cpNm><cpStat>1</cpStat><cpTp>7</cpTp><csId>5646</csId><csNm>통신전파진흥원 전기차충전소</csNm><lat>35.01995538281936</lat><longi>126.79476216903949</longi><statUpdateDatetime>2023-06-15 16:05:42</statUpdateDatetime></item><item><addr>전라남도 나주시 빛가람동 301 통신전파진흥원 주차장</addr><chargeTp>2</chargeTp><cpId>12462</cpId><cpNm>급속02</cpNm><cpStat>1</cpStat><cpTp>7</cpTp><csId>5646</csId><csNm>통신전파진흥원 전기차충전소</csNm><lat>35.01995538281936</lat><longi>126.79476216903949</longi><statUpdateDatetime>2023-06-15 16:05:37</statUpdateDatetime></item><item><addr>울산광역시 중구 학성동 409-1 울산MBC 입구</addr><chargeTp>2</chargeTp><cpId>12514</cpId><cpNm>급속01</cpNm><cpStat>1</cpStat><cpTp>10</cpTp><csId>5676</csId><csNm>울산MBC</csNm><lat>35.560804517904266</lat><longi>129.33258528517035</longi><statUpdateDatetime>2023-06-15 16:08:29</statUpdateDatetime></item><item><addr>강원도 인제군 인제읍 상동리 289 인제전통시장 주차장</addr><chargeTp>2</chargeTp><cpId>12518</cpId><cpNm>급속01</cpNm><cpStat>1</cpStat><cpTp>7</cpTp><csId>5670</csId><csNm>인제전통시장</csNm><lat>38.067264862670335</lat><longi>128.1714725763827</longi><statUpdateDatetime>2023-06-15 16:05:02</statUpdateDatetime></item><item><addr>인천광역시 연수구 동춘동 926 지하주차장</addr><chargeTp>2</chargeTp><cpId>11910</cpId><cpNm>급속01</cpNm><cpStat>1</cpStat><cpTp>7</cpTp><csId>5295</csId><csNm>홈플러스 인천연수점</csNm><lat>37.405906228017216</lat><longi>126.68361036155045</longi><statUpdateDatetime>2023-06-15 16:06:07</statUpdateDatetime></item><item><addr>인천광역시 연수구 동춘동 926 지하주차장</addr><chargeTp>2</chargeTp><cpId>11911</cpId><cpNm>급속02</cpNm><cpStat>1</cpStat><cpTp>7</cpTp><csId>5295</csId><csNm>홈플러스 인천연수점</csNm><lat>37.405906228017216</lat><longi>126.68361036155045</longi><statUpdateDatetime>2023-06-15 16:06:04</statUpdateDatetime></item><item><addr>인천광역시 연수구 동춘동 926 지하주차장</addr><chargeTp>2</chargeTp><cpId>11912</cpId><cpNm>급속03</cpNm><cpStat>1</cpStat><cpTp>7</cpTp><csId>5295</csId><csNm>홈플러스 인천연수점</csNm><lat>37.405906228017216</lat><longi>126.68361036155045</longi><statUpdateDatetime>2023-06-15 16:06:41</statUpdateDatetime></item><item><addr>강원도 홍천군 화촌면 군업리 산 240-5 LPG충전소 우측</addr><chargeTp>2</chargeTp><cpId>12222</cpId><cpNm>급속01</cpNm><cpStat>1</cpStat><cpTp>7</cpTp><csId>5488</csId><csNm>(고속도로)홍천휴게소 양양방향</csNm><lat>37.75727182855603</lat><longi>128.0042462601478</longi><statUpdateDatetime>2023-06-15 16:04:09</statUpdateDatetime></item><item><addr>강원도 홍천군 화촌면 군업리 산 240-5 LPG충전소 우측</addr><chargeTp>2</chargeTp><cpId>12223</cpId><cpNm>급속02</cpNm><cpStat>1</cpStat><cpTp>7</cpTp><csId>5488</csId><csNm>(고속도로)홍천휴게소 양양방향</csNm><lat>37.75727182855603</lat><longi>128.0042462601478</longi><statUpdateDatetime>2023-06-15 16:06:58</statUpdateDatetime></item><item><addr>강원도 홍천군 화촌면 군업리 산 240-5 LPG충전소 우측</addr><chargeTp>2</chargeTp><cpId>12225</cpId><cpNm>급속04</cpNm><cpStat>1</cpStat><cpTp>7</cpTp><csId>5488</csId><csNm>(고속도로)홍천휴게소 양양방향</csNm><lat>37.75727182855603</lat><longi>128.0042462601478</longi><statUpdateDatetime>2023-06-15 16:08:24</statUpdateDatetime></item><item><addr>강원도 홍천군 화촌면 군업리 산 240-5 LPG충전소 우측</addr><chargeTp>2</chargeTp><cpId>12224</cpId><cpNm>급속03</cpNm><cpStat>1</cpStat><cpTp>7</cpTp><csId>5488</csId><csNm>(고속도로)홍천휴게소 양양방향</csNm><lat>37.75727182855603</lat><longi>128.0042462601478</longi><statUpdateDatetime>2023-06-15 16:04:38</statUpdateDatetime></item><item><addr>강원도 원주시 문막읍 원문로 1234 (동화리, 문막하행휴게소) 지상주차장</addr><chargeTp>2</chargeTp><cpId>12232</cpId><cpNm>급속03</cpNm><cpStat>1</cpStat><cpTp>7</cpTp><csId>5506</csId><csNm>(고속도로)문막휴게소 강릉방향</csNm><lat>37.33457627822361</lat><longi>127.85764772960239</longi><statUpdateDatetime>2023-06-15 16:06:20</statUpdateDatetime></item><item><addr>강원도 원주시 호저면 마근거리길 110 (옥산리, 원주(춘천방향)휴게소) 지상주차장</addr><chargeTp>2</chargeTp><cpId>12235</cpId><cpNm>급속01</cpNm><cpStat>1</cpStat><cpTp>7</cpTp><csId>5507</csId><csNm>(고속도로)원주휴게소 춘천방향</csNm><lat>37.433970757612045</lat><longi>127.9316159949919</longi><statUpdateDatetime>2023-06-15 16:03:52</statUpdateDatetime></item><item><addr>강원도 영월군 영월읍 하송리 373-1 공용주차장 위치</addr><chargeTp>2</chargeTp><cpId>12236</cpId><cpNm>급속02</cpNm><cpStat>1</cpStat><cpTp>7</cpTp><csId>5490</csId><csNm>영월군공용주차장</csNm><lat>37.17886552933195</lat><longi>128.45855513971503</longi><statUpdateDatetime>2023-06-15 16:05:34</statUpdateDatetime></item><item><addr>강원도 원주시 문막읍 원문로 1234 (동화리, 문막하행휴게소) 지상주차장</addr><chargeTp>2</chargeTp><cpId>12230</cpId><cpNm>급속01</cpNm><cpStat>2</cpStat><cpTp>7</cpTp><csId>5506</csId><csNm>(고속도로)문막휴게소 강릉방향</csNm><lat>37.33457627822361</lat><longi>127.85764772960239</longi><statUpdateDatetime>2023-06-15 16:05:00</statUpdateDatetime></item><item><addr>강원도 원주시 문막읍 원문로 1234 (동화리, 문막하행휴게소) 지상주차장</addr><chargeTp>2</chargeTp><cpId>12231</cpId><cpNm>급속02</cpNm><cpStat>1</cpStat><cpTp>7</cpTp><csId>5506</csId><csNm>(고속도로)문막휴게소 강릉방향</csNm><lat>37.33457627822361</lat><longi>127.85764772960239</longi><statUpdateDatetime>2023-06-15 16:05:49</statUpdateDatetime></item><item><addr>강원도 원주시 문막읍 원문로 1234 (동화리, 문막하행휴게소) 지상주차장</addr><chargeTp>2</chargeTp><cpId>12234</cpId><cpNm>급속04</cpNm><cpStat>1</cpStat><cpTp>7</cpTp><csId>5506</csId><csNm>(고속도로)문막휴게소 강릉방향</csNm><lat>37.33457627822361</lat><longi>127.85764772960239</longi><statUpdateDatetime>2023-06-15 16:06:09</statUpdateDatetime></item><item><addr>강원도 영월군 영월읍 하송리 242 군청 보건소 뒤</addr><chargeTp>2</chargeTp><cpId>12233</cpId><cpNm>급속02</cpNm><cpStat>1</cpStat><cpTp>7</cpTp><csId>5489</csId><csNm>영월군청 전기차충전소</csNm><lat>37.184008</lat><longi>128.461842</longi><statUpdateDatetime>2023-06-15 16:05:54</statUpdateDatetime></item><item><addr>경기도 광주시 곤지암읍 곤지암리 453-3 곤지암 배수펌프장 공영주차장 안</addr><chargeTp>2</chargeTp><cpId>12309</cpId><cpNm>급속02</cpNm><cpStat>1</cpStat><cpTp>7</cpTp><csId>5523</csId><csNm>곤지암 배수펌프장 공영주차장 충전소</csNm><lat>37.35072730585719</lat><longi>127.33771511316807</longi><statUpdateDatetime>2023-06-15 16:05:01</statUpdateDatetime></item><item><addr>경기도 남양주시 별내동 2190-2 정문 왼편</addr><chargeTp>2</chargeTp><cpId>12388</cpId><cpNm>급속01</cpNm><cpStat>1</cpStat><cpTp>7</cpTp><csId>5602</csId><csNm>수도권119특수구조대</csNm><lat>37.671133296452055</lat><longi>127.11077010995647</longi><statUpdateDatetime>2023-06-15 16:07:35</statUpdateDatetime></item><item><addr>충청북도 보은군 내북면 창리 63-1 정문 오른쪽</addr><chargeTp>2</chargeTp><cpId>12437</cpId><cpNm>급속01</cpNm><cpStat>1</cpStat><cpTp>7</cpTp><csId>5630</csId><csNm>내북면사무소</csNm><lat>36.57801028883558</lat><longi>127.66373296025804</longi><statUpdateDatetime>2023-06-15 16:02:12</statUpdateDatetime></item><item><addr>경상북도 안동시 동부동 85-3 공영주차장 1층</addr><chargeTp>2</chargeTp><cpId>12441</cpId><cpNm>급속02</cpNm><cpStat>1</cpStat><cpTp>7</cpTp><csId>5627</csId><csNm>웅부공원 공영주차장</csNm><lat>36.565614</lat><longi>128.732862</longi><statUpdateDatetime>2023-06-15 16:00:52</statUpdateDatetime></item><item><addr>경상북도 영덕군 영덕읍 우곡리 286 사옥내 주차장</addr><chargeTp>1</chargeTp><cpId>12455</cpId><cpNm>완속02</cpNm><cpStat>1</cpStat><cpTp>3</cpTp><csId>5643</csId><csNm>영덕지사(공용)</csNm><lat>36.41145</lat><longi>129.375104</longi><statUpdateDatetime>2023-06-15 16:04:36</statUpdateDatetime></item><item><addr>경상북도 영덕군 영덕읍 우곡리 286 사옥내 주차장</addr><chargeTp>1</chargeTp><cpId>12454</cpId><cpNm>완속01</cpNm><cpStat>2</cpStat><cpTp>3</cpTp><csId>5643</csId><csNm>영덕지사(공용)</csNm><lat>36.41145</lat><longi>129.375104</longi><statUpdateDatetime>2023-06-15 16:00:00</statUpdateDatetime></item><item><addr>부산광역시 해운대구 좌동 1427 주차장내</addr><chargeTp>2</chargeTp><cpId>12303</cpId><cpNm>급속01</cpNm><cpStat>1</cpStat><cpTp>7</cpTp><csId>5539</csId><csNm>아세안문화원</csNm><lat>35.17521352534455</lat><longi>129.1819528416682</longi><statUpdateDatetime>2023-06-15 16:06:00</statUpdateDatetime></item><item><addr>서울특별시 중랑구 신내동 316 장례식장 뒷편 전기차충전소</addr><chargeTp>2</chargeTp><cpId>12334</cpId><cpNm>급속01</cpNm><cpStat>1</cpStat><cpTp>7</cpTp><csId>5563</csId><csNm>서울의료원</csNm><lat>37.6128812</lat><longi>127.0994340</longi><statUpdateDatetime>2023-06-15 16:06:01</statUpdateDatetime></item><item><addr>충청북도 충주시 봉방동 21-38 지상주차장 입구 우측</addr><chargeTp>2</chargeTp><cpId>12381</cpId><cpNm>급속01</cpNm><cpStat>1</cpStat><cpTp>7</cpTp><csId>5595</csId><csNm>근로복지공단 충주지사</csNm><lat>36.9729951151103</lat><longi>127.92190437416704</longi><statUpdateDatetime>2023-06-15 16:07:56</statUpdateDatetime></item><item><addr>전라북도 전주시 덕진구 장동 1112 차단기 왼쪽 / 환경공단 충전기 옆</addr><chargeTp>2</chargeTp><cpId>12390</cpId><cpNm>급속01</cpNm><cpStat>1</cpStat><cpTp>7</cpTp><csId>5606</csId><csNm>전북개발공사</csNm><lat>33</lat><longi>124</longi><statUpdateDatetime>2023-06-15 16:07:49</statUpdateDatetime></item><item><addr>전라북도 전주시 덕진구 중동 800 출입구 차단기 옆</addr><chargeTp>2</chargeTp><cpId>12389</cpId><cpNm>급속01</cpNm><cpStat>1</cpStat><cpTp>7</cpTp><csId>5605</csId><csNm>한국국토정보공사본사</csNm><lat>35.83788403</lat><longi>127.0657064</longi><statUpdateDatetime>2023-06-15 16:08:03</statUpdateDatetime></item><item><addr>전라북도 임실군 강진면 백련리 551 국립임실호국원 주차장</addr><chargeTp>2</chargeTp><cpId>12392</cpId><cpNm>급속01</cpNm><cpStat>1</cpStat><cpTp>7</cpTp><csId>5601</csId><csNm>국립임실호국원</csNm><lat>35.551192699098166</lat><longi>127.18761888589684</longi><statUpdateDatetime>2023-06-15 16:06:39</statUpdateDatetime></item><item><addr>부산광역시 해운대구 우동 1102-223 노상주차장</addr><chargeTp>1</chargeTp><cpId>12402</cpId><cpNm>완속01</cpNm><cpStat>1</cpStat><cpTp>2</cpTp><csId>5616</csId><csNm>(전주거치형)장산로주거지1</csNm><lat>35.17126026984353</lat><longi>129.14103814681513</longi><statUpdateDatetime>2023-06-15 16:04:30</statUpdateDatetime></item><item><addr>서울특별시 영등포구 신길동 426-3 스포츠센터주차장입구(지상위치)</addr><chargeTp>2</chargeTp><cpId>12446</cpId><cpNm>급속01</cpNm><cpStat>1</cpStat><cpTp>7</cpTp><csId>5639</csId><csNm>영등포 제1스포츠센터</csNm><lat>37.500314</lat><longi>126.906495</longi><statUpdateDatetime>2023-06-15 16:05:54</statUpdateDatetime></item></items><numOfRows>100</numOfRows><pageNo>34</pageNo><totalCount>3399</totalCount></body></response>
Response code: 200
<?xml version="1.0" encoding="UTF-8" standalone="yes"?><response><header><resultCode>00</resultCode><resultMsg>NORMAL SERVICE.</resultMsg></header><body><items/><numOfRows>100</numOfRows><pageNo>35</pageNo><totalCount>3399</totalCount></body></response>
